설치장소명	설치장소상세	설치시도명	설치시군구명	설치시설구분	서비스제공사명	와이파이SSID	설치년월	소재지도로명주소	소재지지번주소	관리기관명	관리기관전화번호	위도	경도	데이터기준일자
울산동구청 국민체육센터	민원실	울산광역시	동구	지역문화시설	SK	Public Wifi	11-Oct	울산광역시 동구 봉수로 153	울산광역시 동구 화정동 208-20	울산광역시 동구청	052-209-3140	35.503497	129.416357	2018-01-01
종합자원봉사센터	사무실	대구광역시	서구	서민·복지시설	KT	public Wifi		대구광역시 서구 국채보상로399	대구광역시 서구 비산동 399-34	대구광역시 서구청	053-663-2473	35.872247	128.574764	2018-02-20
울산동구청 꽃바위문화관	민원실	울산광역시	동구	지역문화시설	SK	Public Wifi	11-Oct	울산광역시 동구 문현3길 6	울산광역시 동구 방어동 1120-1	울산광역시 동구청	052-209-3140	35.487061	129.411324	2018-01-01
종합사회복지관	민원실	울산광역시	동구	서민·복지시설	SK	Public Wifi	11-Oct	울산광역시 동구 봉수로 155	울산광역시 동구 화정동 222	울산광역시 동구청	052-209-3140	35.506113	129.417309	2018-01-01
다래어린이공원	응암동 751-22 (공원CCTV)	서울특별시	은평구	기타	SK	Public WiFi@Seoul	16-Nov	서울특별시 은평구 응암로12길 12-43	서울특별시 은평구 응암동 751-22 (공원CCTV)	서울특별시청	02-2133-2871	37.587172	126.919058	2018-02-14
원대시장	시장내	대구광역시	서구	기타	KT	public Wifi		대구광역시 서구 달서천로83길13	대구광역시 서구 원대동3가 1223-13	대구광역시 서구청	053-663-2473	35.883052	128.578038	2018-02-20
대평리시장	시장내	대구광역시	서구	기타	KT	public Wifi		대구광역시 서구 문화로49길25	대구광역시 서구 평리동 676-7	대구광역시 서구청	053-663-2473	35.877999	128.558935	2018-02-20
중평시장	시장내	대구광역시	서구	기타	KT	public Wifi		대구광역시 서구 서대구로17길16	대구광역시 서구 평리동 1437-5	대구광역시 서구청	053-663-2473	35.865386	128.553921	2018-02-20
까치공원	증산동 180-1 (공원CCTV)	서울특별시	은평구	기타	SK	Public WiFi@Seoul	16-Nov	서울특별시 은평구 증산로1길 6-19	서울특별시 은평구 증산동 180-1 (공원CCTV)	서울특별시청	02-2133-2871	37.579989	126.904098	2018-02-14
대구북부고용센터	민원실	대구광역시	서구	서민·복지시설	KT	public Wifi		대구광역시 서구 서대구로9	대구광역시 서구 내당동469-3	대구광역시 서구청	053-663-2473	35.858778	128.556709	2018-02-20
북부정류장	쉼터공원	대구광역시	서구	교통시설	LGU+	public Wifi		대구광역시 서구 서대구로295	대구광역시 서구 비산동 1856-3	대구광역시 서구청	053-663-2473	35.885286	128.555135	2018-02-20
새마을금고 건너편	신사동 12-16(U존 방범)	서울특별시	은평구	기타	SK	Public WiFi@Seoul	16-Nov	서울특별시 은평구 갈현로1길24	서울특별시 은평구 신사동 12-16(U존 방범)	서울특별시청	02-2133-2871	37.599485	126.907637	2018-02-14
자주와기상 학원 건너편	신사동 23-45(어린이방범109)	서울특별시	은평구	기타	SK	Public WiFi@Seoul	16-Nov	서울특별시 은평구 증산로23길8	서울특별시 은평구 신사동 23-45(어린이방범109)	서울특별시청	02-2133-2871	37.597493	126.914474	2018-02-14
갈현초 정문 CCTV	갈현동 110-12(어린이방범30)	서울특별시	은평구	기타	SK	Public WiFi@Seoul	16-Nov	서울특별시 은평구 연서로27길 25-1	서울특별시 은평구 갈현동 110-12(어린이방범30)	서울특별시청	02-2133-2871	37.62002	126.916534	2018-02-14
중리동우체국	민원실	대구광역시	서구	기타	KT	public Wifi		대구광역시 서구 평리로148	대구광역시 서구 중리동 702-1	대구광역시 서구청	053-663-2473	35.858554	128.540615	2018-02-20
갈현초 후문 CCTV	갈현동 451-18(어린이방범45)	서울특별시	은평구	기타	SK	Public WiFi@Seoul	16-Nov	서울특별시 은평구 연서로29길 35	서울특별시 은평구 갈현동 451-18(어린이방범45)	서울특별시청	02-2133-2871	37.620602	126.917194	2018-02-14
평리3동우체국	우체국	대구광역시	서구	기타	KT	public Wifi		대구광역시 서구 국채보상로279	대구광역시 서구 평리동 1072-27	대구광역시 서구청	053-663-2473	35.871897	128.561431	2018-02-20
서구청	민원실	대구광역시	서구	관공서	KT	public Wifi		대구광역시 서구 국채보상로257	대구광역시 서구 평리동 1230-9	대구광역시 서구청	053-663-2473	35.871757	128.559175	2018-02-20
보건복지회	사무실	대구광역시	서구	서민·복지시설	LGU+	public Wifi		대구광역시 서구 국채보상로46길16	대구광역시 서구 평리동 1368-1	대구광역시 서구청	053-663-2473	35.86902	128.555827	2018-02-20
서대구우체국	민원실	대구광역시	서구	기타	KT	public Wifi		대구광역시 서구 서대구로97	대구광역시 서구 평리동 1404-4	대구광역시 서구청	053-663-2473	35.866817	128.555185	2018-02-20
평리5동우체국	민원실	대구광역시	서구	기타	KT	public Wifi		대구광역시 서구 국채보상로161-1	대구광역시 서구 평리동 1535-12	대구광역시 서구청	053-663-2473	35.869621	128.548819	2018-02-20
갈현동 천주교성당CCTV	갈현동 430-17(어린이방범31)	서울특별시	은평구	기타	SK	Public WiFi@Seoul	16-Nov	서울특별시 은평구 통일로83길 23	서울특별시 은평구 갈현동 430-17(어린이방범31)	서울특별시청	02-2133-2871	37.621006	126.919121	2018-02-14
농협두류점	민원실	대구광역시	서구	기타	KT	public Wifi		대구광역시 서구 달구벌대로1797	대구광역시 서구 내당동 219-8	대구광역시 서구청	053-663-2473	35.859543	128.561404	2018-02-20
내당역	역사	대구광역시	서구	교통시설	LGU+	public Wifi		대구광역시 서구 달구벌대로1829	대구광역시 서구 내당동 63-1	대구광역시 서구청	053-663-2473	35.860565	128.564742	2018-02-20
비산5동	민원실	대구광역시	서구	관공서	LGU+	public Wifi		대구광역시 서구 팔달로170	대구광역시 서구 비산동 1041-3	대구광역시 서구청	053-663-2473	35.888579	128.568389	2018-02-20
농협원대동	농협	대구광역시	서구	기타	KT	public Wifi		대구광역시 서구 달서천로83길6	대구광역시 서구 원대동1가 77	대구광역시 서구청	053-663-2473	35.882079	128.57802	2018-02-20
대구의료원	민원실	대구광역시	서구	서민·복지시설	LGU+	public Wifi		대구광역시 서구 평리로157	대구광역시 서구 중리동 1162	대구광역시 서구청	053-663-2473	35.85964	128.540587	2018-02-20
청구병원후문(CCTV)	갈현동 403-1(주정차41)	서울특별시	은평구	기타	SK	Public WiFi@Seoul	16-Nov	서울특별시 은평구 통일로83길 7	서울특별시 은평구 갈현동 403-1(주정차41)	서울특별시청	02-2133-2871	37.601634	126.918575	2018-02-14
공사현장 앞(주차)	역촌동 38-9	서울특별시	은평구	기타	SK	Public WiFi@Seoul	16-Nov	서울특별시 은평구 진흥로1길 13	서울특별시 은평구 역촌동 38-9	서울특별시청	02-2133-2871	37.602511	126.918783	2018-02-14
현대 부동산 앞(주차)	역촌동 40-9	서울특별시	은평구	기타	SK	Public WiFi@Seoul	16-Nov	서울특별시 은평구 진흥로1길 24	서울특별시 은평구 역촌동 40-9	서울특별시청	02-2133-2871	37.616955	126.920235	2018-02-14
인조유기비어린이공원	역촌동 8-11 (공원CCTV)	서울특별시	은평구	기타	SK	Public WiFi@Seoul	16-Nov	서울특별시 은평구 연서로14길 4	서울특별시 은평구 역촌동 8-11 (공원CCTV)	서울특별시청	02-2133-2871	37.608709	126.916528	2018-02-14
새마을금고(CCTV)	대조동 200-2	서울특별시	은평구	기타	SK	Public WiFi@Seoul	16-Nov	서울특별시 은평구 연서로26길 8	서울특별시 은평구 대조동 200-2	서울특별시청	02-2133-2871	37.619847	126.920456	2018-02-14
시내공원(응암어린이)	응암동 85-41(공원CCTV)	서울특별시	은평구	기타	SK	Public WiFi@Seoul	16-Nov	서울특별시 은평구 은평로11길 10	서울특별시 은평구 응암동 85-41(공원CCTV)	서울특별시청	02-2133-2871	37.601651	126.923598	2018-02-14
장애인보호작업장	아파트 상가	대구광역시	서구	서민·복지시설	KT	public Wifi		대구광역시 서구 국채보상로46길57동서3차 아파트상가	대구광역시 서구 평리동 1354-1	대구광역시 서구청	053-663-2473	35.865402	128.557182	2018-02-20
비산4동주민센터	헬스장	대구광역시	서구	관공서	KT	public Wifi		대구광역시 서구 국채보상로78길29-4	대구광역시 서구 비산동 213-18	대구광역시 서구청	053-663-2473	35.869796	128.57429	2018-02-20
평리2동주민센터	헬스장	대구광역시	서구	관공서	KT	public Wifi		대구광역시 서구 국채보상로60길6	대구광역시 서구 평리동 1100-7	대구광역시 서구청	053-663-2473	35.871224	128.56368	2018-02-20
보건소	민원실	대구광역시	서구	서민·복지시설	KT	public Wifi		대구광역시 서구 국채보상로257	대구광역시 서구 평리동 1230-9	대구광역시 서구청	053-663-2473	35.871757	128.559175	2018-02-20
노인복지관	사무실	대구광역시	서구	서민·복지시설	KT	public Wifi		대구광역시 서구 문화로 288	대구광역시 서구 평리1동1044-4	대구광역시 서구청	053-663-2473	35.875497	128.564076	2018-02-20
북부정류장	쉼터공원	대구광역시	서구	교통시설	KT	public Wifi		대구광역시 서구 서대구로295	대구광역시 서구 비산동 1856-3	대구광역시 서구청	053-663-2473	35.885286	128.555135	2018-02-20
구민건강증진센터	민원실	대구광역시	서구	서민·복지시설	KT	public Wifi		대구광역시 서구 북비산로71길7	대구광역시 서구 비산동 42-107	대구광역시 서구청	053-663-2473	35.880192	128.572434	2018-02-20
건강생활지원센터	민원실	대구광역시	서구	서민·복지시설	KT	public Wifi		대구광역시 서구 서대구로7길46	대구광역시 서구 내당동 305-22	대구광역시 서구청	053-663-2473	35.860737	128.551439	2018-02-20
서구청(별관)	정보화교육장	대구광역시	서구	관공서	KT	public Wifi		대구광역시 서구 국채보상로257	대구광역시 서구 평리동 1230-9	대구광역시 서구청	053-663-2473	35.871757	128.559175	2018-02-20
이현시장	시장내	대구광역시	서구	기타	KT	public Wifi		대구광역시 서구 문화로33길24	대구광역시 서구 평리동 606-8	대구광역시 서구청	053-663-2473	35.876944	128.550645	2018-02-20
중리시장	시장내	대구광역시	서구	기타	KT	public Wifi		대구광역시 서구 국채보상로31길12	대구광역시 서구 평리동 1538-3	대구광역시 서구청	053-663-2473	35.870298	128.547822	2018-02-20
내당1동주민센터	민원실	대구광역시	서구	관공서	KT	public Wifi		대구광역시 서구 서대구로4길35	대구광역시 서구 내당동 214-33	대구광역시 서구청	053-663-2473	35.860652	128.560699	2018-02-20
내당4동주민센터	민원실	대구광역시	서구	관공서	KT	public Wifi		대구광역시 서구 서대구로3길46	대구광역시 서구 내당동 354-7	대구광역시 서구청	053-663-2473	35.858942	128.551748	2018-02-20
녹번마을마당	녹번동 104-7	서울특별시	은평구	기타	SK	Public WiFi@Seoul	16-Nov	서울특별시 은평구 녹번로3가길 1	서울특별시 은평구 녹번동 104-7	서울특별시청	02-2133-2871	37.606105	126.927625	2018-02-14
"비산2,3동"	민원실	대구광역시	서구	관공서	KT	public Wifi		대구광역시 서구 국채보상로81길43	대구광역시 서구 비산동 125-22	대구광역시 서구청	053-663-2473	35.875814	128.574717	2018-02-20
관동공원	불광동 270-11(방범CCTV)	서울특별시	은평구	기타	SK	Public WiFi@Seoul	16-Nov	서울특별시 은평구 통일로68가길 20	서울특별시 은평구 불광동 270-11(방범CCTV)	서울특별시청	02-2133-2871	37.613598	126.929874	2018-02-14
비산5동	청사입구	대구광역시	서구	관공서	KT	public Wifi		대구광역시 서구 달서천로61안길17	대구광역시 서구 비산동1185-41	대구광역시 서구청	053-663-2473	35.886106	128.570085	2018-02-20
향림도시농업체험원 관리소	불광2동 458-1(공원 관리사무소)	서울특별시	은평구	기타	SK	Public WiFi@Seoul	16-Nov	서울특별시 은평구 연서로43길 16-13	서울특별시 은평구 불광2동 458-1(공원 관리사무소)	서울특별시청	02-2133-2871	37.627817	126.926798	2018-02-14
비산7동	민원실	대구광역시	서구	관공서	KT	public Wifi		대구광역시 서구 염색공단로5길4	대구광역시 서구 비산동1890-2	대구광역시 서구청	053-663-2473	35.887997	128.553547	2018-02-20
새장골공원	불광동 444-1(공원CCTV)	서울특별시	은평구	기타	SK	Public WiFi@Seoul	16-Nov	서울특별시 은평구 연서로37가길 10-12	서울특별시 은평구 불광동 444-1(공원CCTV)	서울특별시청	02-2133-2871	37.625436	126.926179	2018-02-14
평리3동	민원실	대구광역시	서구	관공서	KT	public Wifi		대구광역시 서구 문화로261	대구광역시 서구 평리동931-1	대구광역시 서구청	053-663-2473	35.875914	128.561304	2018-02-20
칠량면사무소 민원실	칠량면사무소 민원실	전라남도	강진군	관 공 서	SK	Public WiFi Free	2015	전라남도 강진군 칠량면 칠량로 67	전라남도 강진군 칠량면 칠량로 67	전라남도 강진군	061-430-3300	34.5727808	126.7818584	2017-11-29
상중이동	민원실	대구광역시	서구	관공서	KT	public Wifi		대구광역시 서구 평리로35길90-6	대구광역시 서구 중리동1082-11	대구광역시 서구청	053-663-2473	35.867927	128.544247	2018-02-20
도암면사무소 민원실	도암면사무소 민원실	전라남도	강진군	관 공 서	SK	Public WiFi Free	2015	전라남도 강진군 도암면 도암중앙로 73	전라남도 강진군 도암면 도암중앙로 73	전라남도 강진군	061-430-3300	34.5461307	126.7102501	2017-11-29
새길시장	시장내	대구광역시	서구	기타	KT	public Wifi		대구광역시 서구 달서로4길9-34	대구광역시 서구 내당동 968-103	대구광역시 서구청	053-663-2473	35.864586	128.571653	2018-02-20
작천면사무소 민원실	작천면사무소 민원실	전라남도	강진군	관 공 서	SK	Public WiFi Free	2015	전라남도 강진군 작천면 평리3길 2	전라남도 강진군 작천면 평리3길 2	전라남도 강진군	061-430-3300	34.7043093	126.7539568	2017-11-29
군동보건지소	군동보건지소	전라남도	강진군	관 공 서	SK	Public WiFi Free	2015	전라남도 강진군 군동면 진흥로 324-9	전라남도 강진군 군동면 진흥로 324-9	전라남도 강진군	061-430-3300	34.6436392	126.7986246	2017-11-29
병영5일시장	병영5일시장	전라남도	강진군	전통시장	SK	Public WiFi Free	2015	전라남도 강진군 병영면 남삼인길 6	전라남도 강진군 병영면 남삼인길 6	전라남도 강진군	061-430-3300	34.713753	126.7981307	2017-11-29
남목1동주민센터	민원실	울산광역시	동구	관공서	LGU+	Public Wifi	14-Dec	울산광역시 동구 방어진순환도로 1170	울산광역시 동구 서부동 522-1	울산광역시 동구청	052-209-3140	35.539523	129.420744	2018-01-01
남목2동주민센터	민원실	울산광역시	동구	관공서	LGU+	Public Wifi	14-Dec	울산광역시 동구 명덕6길 33	울산광역시 동구 서부동 113-190	울산광역시 동구청	052-209-3140	35.524794	129.431436	2018-01-01
남목3동주민센터	민원실	울산광역시	동구	관공서	LGU+	Public Wifi	14-Dec	울산광역시 동구 동해안로 100	울산광역시 동구 서부동 114-7	울산광역시 동구청	052-209-3140	35.546361	129.431387	2018-01-01
남목시장	시장 거리	울산광역시	동구	기타	LGU+	Public Wifi	15-Oct	울산광역시 동구 남목17길 16	울산광역시 동구 동부동 310-15	울산광역시 동구청	052-209-3140	35.542544	129.427248	2018-01-01
남목청소년문화의집	민원실	울산광역시	동구	서민·복지시설	LGU+	Public Wifi	13-Dec	울산광역시 동구 남목9길 13	울산광역시 동구 서부동 449	울산광역시 동구청	052-209-3140	35.541568	129.425225	2018-01-01
대송농수산물시장	시장 거리	울산광역시	동구	기타	KT	Public Wifi	13-Dec	울산광역시 동구 녹수길 25	울산광역시 동구 전하동 544-60	울산광역시 동구청	052-209-3140	35.49943	129.420952	2018-01-01
대송동주민센터	민원실	울산광역시	동구	관공서	LGU+	Public Wifi	14-Dec	울산광역시 동구 대송8길 6	울산광역시 동구 화정동 171-4	울산광역시 동구청	052-209-3140	35.503425	129.418406	2018-01-01
대왕암공원캠핑장	관리 사무실	울산광역시	동구	관광	KT	camping	16-Dec	울산광역시 동구 일산동 909	울산광역시 동구 일산동 909	울산광역시 동구청	052-209-3140	35.492404	129.439528	2018-01-01
동구보건소(울산)	민원실	울산광역시	동구	관공서	KT	Public Wifi	13-Dec	울산광역시 동구 봉수로 155	울산광역시 동구 화정동 222	울산광역시 동구청	052-209-3140	35.506637	129.418015	2018-01-01
동구청 민원실(울산)	민원실	울산광역시	동구	관공서	KT	Public Wifi	13-Dec	울산광역시 동구 봉수로 155	울산광역시 동구 화정동 222	울산광역시 동구청	052-209-3140	35.505092	129.416558	2018-01-01
동부시장	시장 거리	울산광역시	동구	기타	LGU+	Public Wifi	15-Oct	울산광역시 동구 남목17길 16	울산광역시 동구 동부동 310-15	울산광역시 동구청	052-209-3140	35.542834	129.42813	2018-01-01
동울산종합시장	시장 거리	울산광역시	동구	기타	LGU+	Public Wifi	14-Dec	울산광역시 동구 진성14길 77	울산광역시 동구 전하동 661-1	울산광역시 동구청	052-209-3140	35.508875	129.425416	2018-01-01
바드래문화관	민원실	울산광역시	동구	지역문화시설	KT	Badrae	16-Aug	울산광역시 동구 진성8길 91	울산광역시 동구 전하동 652-4	울산광역시 동구청	052-209-3140	35.509375	129.429311	2018-01-01
방어동주민센터	민원실	울산광역시	동구	관공서	LGU+	Public Wifi	14-Dec	울산광역시 동구 꽃바위로 325	울산광역시 동구 방어동 413-1	울산광역시 동구청	052-209-3140	35.486317	129.423885	2018-01-01
소리체험관	민원실	울산광역시	동구	관광	KT	donggu sound	16-Jul	울산광역시 동구 성끝길 103	울산광역시 동구 방어동 3-42	울산광역시 동구청	052-209-3140	35.480944	129.432781	2018-01-01
울산 동구노인복지관	민원실	울산광역시	동구	서민·복지시설	LGU+	Public Wifi	13-Dec	울산광역시 동구 명덕6길 33	울산광역시 동구 서부동 113-190	울산광역시 동구청	052-209-3140	35.52481	129.431437	2018-01-01
"스포츠산업단 체육관, 수영장"	"스포츠산업단 체육관, 수영장"	전라남도	강진군	관 공 서	SK	Public WiFi Free	2015	전라남도 강진군 군동면 종합운동장길 60	전라남도 강진군 군동면 종합운동장길 60	전라남도 강진군	061-430-3300	34.6465521	126.7649667	2017-11-29
산내들지역아동센터	산내들지역아동센터	전라남도	강진군	복지시설	SK	Public WiFi Free	2015	전라남도 강진군 마량면 삼마로 7-8	전라남도 강진군 마량면 삼마로 7-8	전라남도 강진군	061-430-3300	34.450253	126.8018738	2017-11-29
월봉시장	시장 거리	울산광역시	동구	기타	LGU+	Public Wifi	15-Oct	울산광역시 동구 화정6길 5	울산광역시 동구 화정동 647-28	울산광역시 동구청	052-209-3140	35.494107	129.425395	2018-01-01
일산동주민센터	민원실	울산광역시	동구	관공서	LGU+	Public Wifi	14-Dec	울산광역시 동구 번덕7길 30	울산광역시 동구 일산동 578-16	울산광역시 동구청	052-209-3140	35.498034	129.426267	2018-01-01
장애인복지관	민원실	울산광역시	동구	서민·복지시설	LGU+	Public Wifi	14-Dec	울산광역시 동구 방어진순환도로 1271	울산광역시 동구 서부동 615	울산광역시 동구청	052-209-3140	35.532469	129.414434	2018-01-01
전하1동주민센터	민원실	울산광역시	동구	관공서	LGU+	Public Wifi	14-Dec	울산광역시 동구 바드래3길 55	울산광역시 동구 전하동 300-168	울산광역시 동구청	052-209-3140	35.516846	129.428638	2018-01-01
전하2동주민센터	민원실	울산광역시	동구	관공서	LGU+	Public Wifi	14-Dec	울산광역시 동구 진성4길 45	울산광역시 동구 전하동 663-1	울산광역시 동구청	052-209-3140	35.508992	129.426813	2018-01-01
조선희망센터	민원실	울산광역시	동구	기타	KT	hopecenter Wifi	16-Aug	울산광역시 동구 방어진순환도로 1145	울산광역시 동구 서부동 582-5	울산광역시 동구청	052-209-3140	35.539268	129.423755	2018-01-01
동구보건지소	지소내	대전광역시	동구	관공서	SK	public wifi	2015-01-01	대전광역시 동구 현암로22	대전광역시 동구  삼성동374-1	대전광역시 동구청	042-251-4174	36.34288	127.42047	2017-11-30
화정동주민센터	민원실	울산광역시	동구	관공서	LGU+	Public Wifi	14-Dec	울산광역시 동구 대송로 140	울산광역시 동구 화정동 857-1	울산광역시 동구청	052-209-3140	35.495876	129.422579	2018-01-01
강북문화예술회관	광장및1층로비	서울특별시	강북구	지역문화시설	서울특별시 강북구청	PublicWiFi@Gangbuk	12-Oct	서울특별시 강북구 삼각산로 85 (수유동)	서울특별시 강북구 수유동 360-10	강북구도시관리공단	02-944-3115	37.6408544	127.0133421	2018-02-22
강북웰빙스포츠센터	관내 로비	서울특별시	강북구	지역문화시설	서울특별시 강북구청	PublicWiFi@Gangbuk	12-Oct	서울특별시 강북구 오현로31길 51	서울특별시 강북구 번2동 318	강북구도시관리공단	02-944-3115	37.6304749	127.0378273	2018-02-22
강북문화정보도서관	각 자료열람실 및 로비	서울특별시	강북구	지역문화시설	서울특별시 강북구청	PublicWiFi@Gangbuk	12-Oct	서울특별시 강북구 오현로 145 (번동)	서울특별시 강북구 번2동 산27-108	강북구도시관리공단	02-944-3115	37.6251737	127.0361251	2018-02-22
강북청소년문화정보도서관	각 자료열람실 및 로비	서울특별시	강북구	지역문화시설	서울특별시 강북구청	PublicWiFi@Gangbuk	12-Oct	서울특별시 강북구 삼양로54길 68 (미아동)	서울특별시 강북구 미아동 754-60	강북구도시관리공단	02-944-3115	37.6231131	127.0216031	2018-02-22
솔샘문화정보도서관	각 자료열람실 및 로비	서울특별시	강북구	지역문화시설	서울특별시 강북구청	PublicWiFi@Gangbuk	12-Oct	서울특별시 강북구 솔샘로 177 (미아동)	서울특별시 강북구 삼양동 1354-4	강북구도시관리공단	02-944-3115	37.6205181	127.0124524	2018-02-22
송중문화정보도서관	각 자료열람실 및 로비	서울특별시	강북구	지역문화시설	서울특별시 강북구청	PublicWiFi@Gangbuk	12-Oct	서울특별시 강북구 도봉로20나길 6 (미아동)	서울특별시 강북구 미아동 138-11	강북구도시관리공단	02-944-3115	37.6183421	127.0300331	2018-02-22
수유문화정보도서관	각 자료열람실 및 로비	서울특별시	강북구	지역문화시설	서울특별시 강북구청	PublicWiFi@Gangbuk	12-Oct	서울특별시 강북구 삼양로 299 (수유동)	서울특별시 강북구 수유동 605-412	강북구도시관리공단	02-944-3115	37.630129	127.017543	2018-02-22
미아문화정보도서관	각 자료열람실 및 로비	서울특별시	강북구	지역문화시설	서울특별시 강북구청	PublicWiFi@Gangbuk	12-Oct	서울특별시 강북구 솔매로49길 14 (미아동)	서울특별시 강북구 미아동 197-1	강북구도시관리공단	02-944-3115	37.6270633	127.0269805	2018-02-22
서부재활체육센터	구산동 191-1	서울특별시	은평구	서민·복지시설	미래부	Public WiFi FREE	14-Oct	서울특별시 은평구 갈현로11길 30	서울특별시 은평구 구산동 191-1	미래부	1899-4876	37.605202	126.907557	2018-02-14
녹번종합사회복지관	녹번동 산28-6	서울특별시	은평구	서민·복지시설	미래부	Public WiFi FREE	13-Oct	서울특별시 은평구 은평로21길 14-26	서울특별시 은평구 녹번동 산28-6	미래부	1899-4876	37.602723	126.931791	2018-02-14
보은군 민원과	민원과 1층	충청북도	보은군	관공서	KT	Public WiFi Free		충청북도 보은군 보은읍 삼산로 50		충청북도 보은군청	043-540-3126	36.483502	127.716879	2018-02-19
보은읍사무소	복지민원계	충청북도	보은군	관공서	KT	Public WiFi Free		충청북도 보은군 보은읍 삼산로 50		충청북도 보은군청	043-540-3126	36.483581	127.717145	2018-02-19
보은군 보건소	진료실	충청북도	보은군	관공서	KT	Public WiFi Free		충청북도 보은군 보은읍 동광길 50		충청북도 보은군청	043-540-3126	36.486685	127.716142	2018-02-19
속리산면사무소	복지민원계	충청북도	보은군	관공서	KT	Public WiFi Free		충청북도 보은군 속리산면 법주사로 12		충청북도 보은군청	043-540-3126	36.512198	127.810358	2018-02-19
장안면사무소	복지민원계	충청북도	보은군	관공서	KT	Public WiFi Free		충청북도 보은군 장안면 장안로 37		충청북도 보은군청	043-540-3126	36.469944	127.789028	2018-02-19
마로면사무소	복지민원계	충청북도	보은군	관공서	KT	Public WiFi Free		충청북도 보은군 마로면 관기송현로 103		충청북도 보은군청	043-540-3126	36.435761	127.820382	2018-02-19
탄부면사무소	복지민원계	충청북도	보은군	관공서	KT	Public WiFi Free		충청북도 보은군 탄부면 하장2길 15		충청북도 보은군청	043-540-3126	36.430721	127.795878	2018-02-19
삼승면사무소	복지민원계	충청북도	보은군	관공서	KT	Public WiFi Free		충청북도 보은군 삼승면 안내삼승로 687		충청북도 보은군청	043-540-3126	36.395877	127.727681	2018-02-19
삼승보건지소	진료실	충청북도	보은군	관공서	KT	Public WiFi Free		충청북도 보은군 삼승면 원남로1길 39		충청북도 보은군청	043-540-3126	36.397929	127.734337	2018-02-19
속리산보건지소	진료실	충청북도	보은군	관공서	KT	Public WiFi Free		충청북도 보은군 속리산면 법주사로 248-22		충청북도 보은군청	043-540-3126	36.531168	127.823151	2018-02-19
내북보건지소	진료실	충청북도	보은군	관공서	KT	Public WiFi Free		충청북도 보은군 내북면 남부로 6239		충청북도 보은군청	043-540-3126	36.577348	127.660547	2018-02-19
산외보건지소	진료실	충청북도	보은군	관공서	KT	Public WiFi Free		충청북도 보은군 산외면 구티1길 19-5		충청북도 보은군청	043-540-3126	36.551809	127.730925	2018-02-19
동부통합보건지소	진료실	충청북도	보은군	관공서	KT	Public WiFi Free		충청북도 보은군 마로면 관기송현로 65		충청북도 보은군청	043-540-3126	36.436402	127.816456	2018-02-19
보은전통시장	시장 전체	충청북도	보은군	기타	KT	Public WiFi Free		충청북도 보은군 보은읍 삼산로 17-6 일대		충청북도 보은군청	043-540-3126	36.483812	127.720086	2018-02-19
보은종합시장	시장 전체	충청북도	보은군	기타	KT	Public WiFi Free		충청북도 보은군 보은읍 삼산로3길 12 일대		충청북도 보은군청	043-540-3126	36.483011	127.719343	2018-02-19
보은국민체육센터	1층	충청북도	보은군	편의시설	보은군청	Boeun WiFi Free		충청북도 보은군 보은읍 군청길 38-1		충청북도 보은군청	043-540-3126	36.488423	127.729181	2018-02-19
보은공설운동장	운동장 전역	충청북도	보은군	편의시설	보은군청	Boeun WiFi Free		충청북도 보은군 보은읍 군청길 40		충청북도 보은군청	043-540-3126	36.487333	127.729851	2018-02-19
뱃들공원	야외공연장	충청북도	보은군	편의시설	보은군청	Boeun WiFi Free			충청북도 보은군 보은읍 이평리 175-1	충청북도 보은군청	043-540-3126	36.486301	127.723477	2018-02-19
평택보건소	"2F(구강진료실앞, 프로그램실앞, 임상병리실앞, 휴게실앞), 1F(모자보건소앞, 휴게실앞), B1(상황실 및 교육실내)"	경기도	평택시	관공서	public WiFi free		15-Nov	경기도 평택시 평택5로 56	경기도 평택시 비전동 850	경기도 평택시청	031-8024-2441	36.990761	127.103064	2018-02-19
통복시장	경기도 평택시 통복시장로25번길 10	경기도	평택시	서민·복지시설	public WiFi free		15-Jan	경기도 평택시 통복시장로25번길 10	경기도 평택시 통복동 70-29	경기도 평택시청	031-8024-2441	36.997785	127.076319	2018-02-19
서정시장	경기도 평택시 서정역로55번길 21	경기도	평택시	서민·복지시설	public WiFi free		15-Jan	경기도 평택시 서정역로55번길 21	경기도 평택시 서정동 317-2	경기도 평택시청	031-8024-2441	37.057598	127.045801	2018-02-19
국제중앙시장	경기도 평택시 중앙시장로11번길 15-10	경기도	평택시	서민·복지시설	public WiFi free		15-Jan	경기도 평택시 중앙시장로11번길 15-10	경기도 평택시 신장동 317-2	경기도 평택시청	031-8024-2441	37.080647	127.043211	2018-02-19
안중시장	경기도 평택시 안중읍 안현로서3길 29	경기도	평택시	서민·복지시설	public WiFi free		15-Jan	경기도 평택시 안중읍 안현로서3길 29	경기도 평택시 안중읍 안중리 267-1	경기도 평택시청	031-8024-2441	36.987443	126.919537	2018-02-19
평택항국제여객터미널	"2F(경찰서), 1F(화물대기장, 출국대합실,출국장로비, 출국심사대, 입국대기실,입국대합실, 입국장로비, 출국대기실)"	경기도	평택시	교통시설	public WiFi free		15-Jan	경기도 평택시 포승읍 평택항만길 75	경기도 평택시 포승읍 만호리 570-2	경기도 평택시청	031-8024-2441	36.957529	126.837515	2018-02-19
은평종합사회복지관	수색동 8-15	서울특별시	은평구	서민·복지시설	미래부	Public WiFi FREE	13-Oct	서울특별시 은평구 은평터널로 48	서울특별시 은평구 수색동 8-15	미래부	1899-4876	37.585072	126.899337	2018-02-14
증산종합시장2	증산동 212 증산초등학교 증산종합시장	서울특별시	은평구	기타	미래부	Public WiFi FREE	14-Oct	서울특별시 은평구 증산서길 58	서울특별시 은평구 증산동 212 증산초등학교 증산종합시장	미래부	1899-4876	37.582	126.905	2018-02-14
갈곡리 어린이공원	갈현1동 436-51	서울특별시	은평구	기타	서울특별시청	Public WiFi@Seoul	13-Oct	서울특별시 은평구 갈현로41길 3	서울특별시 은평구 갈현1동 436-51	서울특별시청	02-2133-2871	37.623847	126.916615	2018-02-14
갈마어린이공원	갈현2동 474-1	서울특별시	은평구	기타	서울특별시청	Public WiFi@Seoul	12-Oct	서울특별시 은평구 연서로21길 15	서울특별시 은평구 갈현2동 474-1	서울특별시청	02-2133-2871	37.614644	126.915979	2018-02-14
구파발역2번출구	진관동 산 100-25 12-111정류장	서울특별시	은평구	교통시설	서울특별시청	Public WiFi@Seoul	13-Oct	서울특별시 은평구 진관2로 15-25	서울특별시 은평구 진관동 산 100-25 12-111정류장	서울특별시청	02-2133-2871	37.636737	126.918969	2018-02-14
구파발역3번출구	진관동 72 12-116정류장	서울특별시	은평구	교통시설	서울특별시청	Public WiFi@Seoul	13-Oct	서울특별시 은평구 진관2로 29-21	서울특별시 은평구 진관동 72 12-116정류장	서울특별시청	02-2133-2871	37.635818	126.918761	2018-02-14
구파발역앞광장	진관동 533(불법주정차 폴대)	서울특별시	은평구	기타	서울특별시청	Public WiFi@Seoul	12-Oct	서울특별시 은평구 진관2로 15-25	서울특별시 은평구 진관동 533(불법주정차 폴대)	서울특별시청	02-2133-2871	37.63691	126.918954	2018-02-14
궁말어린이공원1	갈현2동 327-21번지 기지국(무선MESH구성)	서울특별시	은평구	기타	서울특별시청	Public WiFi@Seoul	12-Oct	서울특별시 은평구 서오릉로20길 13	서울특별시 은평구 갈현2동 327-21번지 기지국(무선MESH구성)	서울특별시청	02-2133-2871	37.616756	126.909001	2018-02-14
분토골어린이공원	증산동 163-34 (분토골어린이공원)	서울특별시	은평구	기타	서울특별시청	Public WiFi@Seoul	12-Oct	서울특별시 은평구 증산로11길 7-2	서울특별시 은평구 증산동 163-34 (분토골어린이공원)	서울특별시청	02-2133-2871	37.586871	126.911632	2018-02-14
궁말어린이공원 2	갈현2동 327-21 궁말어린이공원 CCTV(무선MESH구성)	서울특별시	은평구	기타	서울특별시청	Public WiFi@Seoul	12-Oct	서울특별시 은평구 서오릉로20길 15-1	서울특별시 은평구 갈현2동 327-21 궁말어린이공원 CCTV(무선MESH구성)	서울특별시청	02-2133-2871	37.616977	126.908954	2018-02-14
부평자유시장	전체	인천광역시	부평구	기타	LGU+		15-Jan	인천광역시 부평구 대정로 50		인천광역시 부평구청	032-509-6174	37.494663	126.725434	2018-02-14
녹번서근린공원	녹번동 85-1(녹번서근린공원)	서울특별시	은평구	기타	서울특별시청	Public WiFi@Seoul	13-Oct	서울특별시 은평구 녹번로1길 1	서울특별시 은평구 녹번동 85-1(녹번서근린공원)	서울특별시청	02-2133-2871	37.60381	126.926912	2018-02-14
대림시장(새절역)	응암3동 316-15 (야채가게앞 CCTV 좌측)	서울특별시	은평구	기타	서울특별시청	Public WiFi@Seoul	13-Oct	서울특별시 은평구 가좌로 213-4	서울특별시 은평구 응암3동 316-15 (야채가게앞 CCTV 좌측)	서울특별시청	02-2133-2871	37.588715	126.917985	2018-02-14
대림시장(새절역)	응암3동 603-1 (축산생고기 정육점앞 CCTV 좌측)	서울특별시	은평구	기타	서울특별시청	Public WiFi@Seoul	13-Oct	서울특별시 은평구 응암로4길 25	서울특별시 은평구 응암3동 603-1 (축산생고기 정육점앞 CCTV 좌측)	서울특별시청	02-2133-2871	37.587201	126.917331	2018-02-14
대조시장	녹번동 131-154 앞 주정차 CCTV 좌측 (뿌리한의원 앞)	서울특별시	은평구	기타	서울특별시청	Public WiFi@Seoul	13-Oct	서울특별시 은평구 진흥로 150	서울특별시 은평구 녹번동 131-154 앞 주정차 CCTV 좌측 (뿌리한의원 앞)	서울특별시청	02-2133-2871	37.608754	126.926655	2018-02-14
대조어린이공원	대조동 212 (대조어린이공원)	서울특별시	은평구	기타	서울특별시청	Public WiFi@Seoul	11-Oct	서울특별시 은평구 연서로22길 9-30	서울특별시 은평구 대조동 212 (대조어린이공원)	서울특별시청	02-2133-2871	37.615216	126.919702	2018-02-14
물빛공원	"대조동 389-5 (교통섬, 연신내물빛공원 )"	서울특별시	은평구	기타	서울특별시청	Public WiFi@Seoul	12-Oct	서울특별시 은평구 통일로 855-7	"서울특별시 은평구 대조동 389-5 (교통섬, 연신내물빛공원 )"	서울특별시청	02-2133-2871	37.618819	126.920385	2018-02-14
박석고개공원	갈현1동 416-3	서울특별시	은평구	기타	서울특별시청	Public WiFi@Seoul	12-Oct	서울특별시 은평구 통일로89길 12-13	서울특별시 은평구 갈현1동 416-3	서울특별시청	02-2133-2871	37.625207	126.918464	2018-02-14
백련근린공원	응암2동 산 6-48 (백련근린공원 놀이터)	서울특별시	은평구	기타	서울특별시청	Public WiFi@Seoul	12-Oct	서울특별시 은평구 백련산로4길 26	서울특별시 은평구 응암2동 산 6-48 (백련근린공원 놀이터)	서울특별시청	02-2133-2871	37.594429	126.926165	2018-02-14
북한산성입구	진관동 285-9 12-234정류장	서울특별시	은평구	교통시설	서울특별시청	Public WiFi@Seoul	14-Oct	서울특별시 은평구 북한산로 348	서울특별시 은평구 진관동 285-9 12-234정류장	서울특별시청	02-2133-2871	37.657952	126.945136	2018-02-14
불광생태공원	불광1동 630-68삼거리(불광생태공원)	서울특별시	은평구	기타	서울특별시청	Public WiFi@Seoul	15-Nov	서울특별시 은평구 진흥로19길 10	서울특별시 은평구 불광1동 630-68삼거리(불광생태공원)	서울특별시청	02-2133-2871	37.611613	126.940881	2018-02-14
불광어린이공원	불광1동 246-1	서울특별시	은평구	기타	서울특별시청	Public WiFi@Seoul	12-Oct	서울특별시 은평구 불광로9가길 1	서울특별시 은평구 불광1동 246-1	서울특별시청	02-2133-2871	37.6163	126.931169	2018-02-14
불광역	불광1동 613-3 12-254정류장	서울특별시	은평구	교통시설	서울특별시청	Public WiFi@Seoul	14-Oct	서울특별시 은평구 진흥로 215	서울특별시 은평구 불광1동 613-3 12-254정류장	서울특별시청	02-2133-2871	37.609574	126.932576	2018-02-14
불광역 거리	불광1동 281-113(형제갈비앞)	서울특별시	은평구	관광	서울특별시청	Public WiFi@Seoul	11-Oct	서울특별시 은평구 통일로66길 10-1	서울특별시 은평구 불광1동 281-113(형제갈비앞)	서울특별시청	02-2133-2871	37.610601	126.931315	2018-02-14
불광천	증산동 199-15앞 CCTV	서울특별시	은평구	관광	서울특별시청	Public WiFi@Seoul	11-Oct	서울특별시 은평구 증산로 337 앞	서울특별시 은평구 증산동 199-15앞 CCTV	서울특별시청	02-2133-2871	37.588053	126.919522	2018-02-14
불광천	응암3동122-10(불광천방면 프로젝터 옆)	서울특별시	은평구	관광	서울특별시 은평구청	Public WiFi@Eunpyeong/PublicWiFi@Seoul	17-Nov	서울특별시 은평구 불광천길 506 앞	서울특별시 은평구 응암3동122-10(불광천방면 프로젝터 옆)	서울특별시 은평구청	02-351-6364	37.595415	126.914492	2018-02-14
불광천	신사1동 24-18(신흥상가교 다리 밑)	서울특별시	은평구	관광	서울특별시 은평구청	Public WiFi@Eunpyeong/PublicWiFi@Seoul	17-Nov	서울특별시 은평구 증산로 439 앞	서울특별시 은평구 신사1동 34-48(길건너 정자와 환기구 사이)	서울특별시 은평구청	02-351-6364	37.590235	126.91347	2018-02-14
불광천	신사2동 338-1(자매결연도시 비석 옆)	서울특별시	은평구	관광	서울특별시 은평구청	Public WiFi@Eunpyeong/PublicWiFi@Seoul	11-Oct	서울특별시 은평구 증산로 379 앞	서울특별시 은평구 신사2동 338-1(자매결연도시 비석 옆)	서울특별시 은평구청	02-351-6364	37.583661	126.909461	2018-02-14
불광천	증산동 169-8(증산역 2번출구)	서울특별시	은평구	관광	서울특별시 은평구청	Public WiFi@Eunpyeong/PublicWiFi@Seoul	17-Nov	서울특별시 은평구 증산로 295 앞	서울특별시 은평구 증산동 169-8(증산역 2번출구)	서울특별시 은평구청	02-351-6364	37.598787	126.911213	2018-02-14
불광천1	증산동 239(증산교 안전치수 CCTV)	서울특별시	은평구	관광	서울특별시청	Public WiFi@Seoul	16-Nov	서울특별시 은평구 증산로 213	서울특별시 은평구 증산동 239(증산교 안전치수 CCTV)	서울특별시청	02-2133-2871	37.577398	126.903245	2018-02-14
불광천3	증산동 199-11(증산3교 안전치수 CCTV)	서울특별시	은평구	관광	서울특별시청	Public WiFi@Seoul	16-Nov	서울특별시 은평구 증산로 255	서울특별시 은평구 증산동 199-11(증산3교 안전치수 CCTV)	서울특별시청	02-2133-2871	37.580788	126.906077	2018-02-14
불광천4	응암동 592-66(와산교 CU 앞 불법주정차 CCTV)	서울특별시	은평구	관광	서울특별시청	Public WiFi@Seoul	16-Nov	서울특별시 은평구 불광천길 326	서울특별시 은평구 응암동 592-66(와산교 CU 앞 불법주정차 CCTV)	서울특별시청	02-2133-2871	37.588604	126.913936	2018-02-14
불광천5	응암동 580-12(불광천 공연장 안전치수 CCTV)	서울특별시	은평구	관광	서울특별시청	Public WiFi@Seoul	16-Nov	서울특별시 은평구 불광천길 424	서울특별시 은평구 응암동 580-12(불광천 공연장 안전치수 CCTV)	서울특별시청	02-2133-2871	37.592905	126.915029	2018-02-14
불광천6	응암동 738(불법주정차 CCTV)	서울특별시	은평구	관광	서울특별시청	Public WiFi@Seoul	16-Nov	서울특별시 은평구 은평로 82	서울특별시 은평구 응암동 738(불법주정차 CCTV)	서울특별시청	02-2133-2871	37.598134	126.917612	2018-02-14
서갈현어린이공원	갈현1동 434-38	서울특별시	은평구	기타	서울특별시청	Public WiFi@Seoul	12-Oct	서울특별시 은평구 갈현로35길 8-1	서울특별시 은평구 갈현1동 434-38	서울특별시청	02-2133-2871	37.621392	126.915706	2018-02-14
서북병원	역촌동 산31-1	서울특별시	은평구	서민·복지시설	서울특별시청	Public WiFi@Seoul	14-Oct	서울특별시 은평구 갈현로7길 49	서울특별시 은평구 역촌동 산31-1	서울특별시청	02-2133-2871	37.604096	126.904494	2018-02-14
시루메공원	증산동 185-1번지	서울특별시	은평구	기타	서울특별시청	Public WiFi@Seoul	14-Oct	서울특별시 은평구 증산로5길 10-1	서울특별시 은평구 증산동 185-1번지	서울특별시청	02-2133-2871	37.583	126.907	2018-02-14
신흥어린이공원	신사1동 31-2	서울특별시	은평구	기타	서울특별시청	Public WiFi@Seoul	11-Oct	서울특별시 은평구 증산로19길 28-12	서울특별시 은평구 신사1동 31-2	서울특별시청	02-2133-2871	37.595933	126.911793	2018-02-14
양지시장	응암3동 598-26번지 응암의원 양지시장	서울특별시	은평구	기타	서울특별시청	Public WiFi@Seoul	14-Oct	서울특별시 은평구 응암로 180	서울특별시 은평구 응암3동 598-26번지 응암의원 양지시장	서울특별시청	02-2133-2871	37.588	126.917	2018-02-14
역마을어린이공원	역촌동 39-2 (역마을어린이공원)	서울특별시	은평구	기타	서울특별시청	Public WiFi@Seoul	11-Oct	서울특별시 은평구 진흥로1길 8	서울특별시 은평구 역촌동 39-2 (역마을어린이공원)	서울특별시청	02-2133-2871	37.601135	126.918713	2018-02-14
역말사거리	역촌동 63-1번지 역말사거리	서울특별시	은평구	관광	서울특별시청	Public WiFi@Seoul	14-Oct	서울특별시 은평구 연서로55	서울특별시 은평구 역촌동 63-1번지 역말사거리	서울특별시청	02-2133-2871	37.604	126.915	2018-02-14
역말어린이공원	역촌동 47-1	서울특별시	은평구	기타	서울특별시청	Public WiFi@Seoul	12-Oct	서울특별시 은평구 갈현로14길 32	서울특별시 은평구 역촌동 47-1	서울특별시청	02-2133-2871	37.606792	126.913909	2018-02-14
역촌동걷고싶은거리	역촌동 9-37	서울특별시	은평구	관광	서울특별시청	Public WiFi@Seoul	11-Oct	서울특별시 은평구 연서로 84	서울특별시 은평구 역촌동 9-37	서울특별시청	02-2133-2871	37.605535	126.918154	2018-02-14
역촌동걷고싶은거리	역촌동 41-20	서울특별시	은평구	관광	서울특별시청	Public WiFi@Seoul	11-Oct	서울특별시 은평구 진흥로1길 18-1	서울특별시 은평구 역촌동 41-20	서울특별시청	02-2133-2871	37.601513	126.91875	2018-02-14
역촌시장	구산동 198-2 12-150정류장	서울특별시	은평구	교통시설	서울특별시청	Public WiFi@Seoul	14-Oct	서울특별시 은평구 서오릉로 173	서울특별시 은평구 구산동 198-2 12-150정류장	서울특별시청	02-2133-2871	37.612727	126.914164	2018-02-14
역촌중앙시장	갈현2동 468-3번지	서울특별시	은평구	기타	서울특별시청	Public WiFi@Seoul	14-Oct	서울특별시 은평구 연서로17길 12	서울특별시 은평구 갈현2동 468-3번지	서울특별시청	02-2133-2871	37.613	126.916	2018-02-14
역촌초등학교 정문	역촌동 66-44번지 GS25 역촌초등학교 정문	서울특별시	은평구	관광	서울특별시청	Public WiFi@Seoul	14-Oct	서울특별시 은평구 은평로3길 36	서울특별시 은평구 역촌동 66-44번지 GS25 역촌초등학교 정문	서울특별시청	02-2133-2871	37.602	126.915	2018-02-14
연서공원	역촌동 32-36번지 연서공원	서울특별시	은평구	기타	서울특별시청	Public WiFi@Seoul	14-Oct	서울특별시 은평구 연서로6길 12	서울특별시 은평구 역촌동 32-36번지 연서공원	서울특별시청	02-2133-2871	37.604	126.917	2018-02-14
연서시장	"불광2동 309 연신내역 주변(1) (미성가구앞, 불법주정차)"	서울특별시	은평구	기타	서울특별시청	Public WiFi@Seoul	12-Oct	서울특별시 은평구 연서로 252	"서울특별시 은평구 불광2동 309 연신내역 주변(1) (미성가구앞, 불법주정차)"	서울특별시청	02-2133-2871	37.619472	126.922857	2018-02-14
연서시장	불광동 310-105	서울특별시	은평구	기타	서울특별시청	Public WiFi@Seoul	16-Nov	서울특별시 은평구 통일로 850	서울특별시 은평구 불광동 310-105	서울특별시청	02-2133-2871	37.619441	126.922043	2018-02-14
연신내로데오거리1	갈현1동 396-17 (샤인힐 호텔 앞)	서울특별시	은평구	기타	서울특별시청	Public WiFi@Seoul	11-Oct	서울특별시 은평구 통일로 863-8	서울특별시 은평구 갈현1동 396-17 (샤인힐 호텔 앞)	서울특별시청	02-2133-2871	37.619771	126.91961	2018-02-14
연신내로데오거리2	갈현1동 401-15 (더 걸 앞)	서울특별시	은평구	기타	서울특별시청	Public WiFi@Seoul	11-Oct	서울특별시 은평구 연서로29길 21	서울특별시 은평구 갈현1동 401-15 (더 걸 앞)	서울특별시청	02-2133-2871	37.619484	126.91788	2018-02-14
구의회	녹번동 84	서울특별시	은평구	관공서	서울특별시 은평구청	Public WiFi@Eunpyeong/PublicWiFi@Seoul	15-Nov	서울특별시 은평구 은평로 195	서울특별시 은평구 녹번동 84	서울특별시 은평구청	02-351-6364	37.602652	126.929903	2018-02-14
연신내로데오거리3	갈현2동 454-28 (윤선생 영어 앞)	서울특별시	은평구	기타	서울특별시청	Public WiFi@Seoul	11-Oct	서울특별시 은평구 연서로27길 12	서울특별시 은평구 갈현2동 454-28 (윤선생 영어 앞)	서울특별시청	02-2133-2871	37.617964	126.918211	2018-02-14
연신내로데오거리4	대조동 185-71	서울특별시	은평구	기타	서울특별시청	Public WiFi@Seoul	11-Oct	서울특별시 은평구 통일로 833-6	서울특별시 은평구 대조동 185-71	서울특별시청	02-2133-2871	37.617561	126.921426	2018-02-14
연신내역	대조동 198-10 12-184정류장	서울특별시	은평구	교통시설	서울특별시청	Public WiFi@Seoul	14-Oct	서울특별시 은평구 연서로 220	서울특별시 은평구 대조동 198-10 12-184정류장	서울특별시청	02-2133-2871	37.618137	126.920184	2018-02-14
연신내역1번출구	불광동 484-71	서울특별시	은평구	기타	서울특별시청	Public WiFi@Seoul	16-Nov	서울특별시 은평구 통일로866	서울특별시 은평구 불광동 484-71	서울특별시청	02-2133-2871	37.620195	126.920614	2018-02-14
예일여고	역촌동 1-3 12-151정류장	서울특별시	은평구	교통시설	서울특별시청	Public WiFi@Seoul	14-Oct	서울특별시 은평구 서오릉로 135	서울특별시 은평구 역촌동 1-3 12-151정류장	서울특별시청	02-2133-2871	37.610788	126.917802	2018-02-14
은평구민체육센터앞1	진관동 164-15 12-448정류장	서울특별시	은평구	교통시설	서울특별시청	Public WiFi@Seoul	14-Oct	서울특별시 은평구 진관1로 21-10	서울특별시 은평구 진관동 164-15 12-448정류장	서울특별시청	02-2133-2871	37.631714	126.923216	2018-02-14
은평구민체육센터앞2	진관동 164-27 12-447정류장	서울특별시	은평구	교통시설	서울특별시청	Public WiFi@Seoul	14-Oct	서울특별시 은평구 진관1로 21-10	서울특별시 은평구 진관동 164-27 12-447정류장	서울특별시청	02-2133-2871	37.631417	126.922531	2018-02-14
은평노인복지관 신도중학교앞	진관동 149-7 12-195정류장	서울특별시	은평구	교통시설	서울특별시청	Public WiFi@Seoul	14-Oct	서울특별시 은평구 진관1로 77-30	서울특별시 은평구 진관동 149-7 12-195정류장	서울특별시청	02-2133-2871	37.632452	126.931634	2018-02-14
은평병원	응암2동 232-3	서울특별시	은평구	서민·복지시설	서울특별시청	Public WiFi@Seoul	14-Oct	서울특별시 은평구 백련산로 90	서울특별시 은평구 응암2동 232-3	서울특별시청	02-2133-2871	37.594055	126.923768	2018-02-14
은평평화공원	녹번동 153-1 은평평화공원(역촌역 4번출구 )	서울특별시	은평구	기타	서울특별시청	Public WiFi@Seoul	16-Nov	서울특별시 은평구 서오릉로 63	서울특별시 은평구 녹번동 153-1 은평평화공원(역촌역 4번출구 )	서울특별시청	02-2133-2871	37.605856	126.922963	2018-02-14
동구청	도서관7층	대전광역시	동구	관공서	SK	public wifi	2015-01-01	대전광역시 동구 동구청로 147	대전광역시 동구 가오동 425	대전광역시 동구청	042-251-4174	36.3118501	127.4548274	2017-11-30
응암9구역어린이공원(가칭)	응암2동 670-22	서울특별시	은평구	기타	서울특별시청	Public WiFi@Seoul	12-Oct	서울특별시 은평구 백련산로 10	서울특별시 은평구 응암2동 670-22	서울특별시청	02-2133-2871	37.586525	126.922964	2018-02-14
농수산물할인마트 앞	신사동 228-22	서울특별시	은평구	기타	서울특별시청	Public WiFi@Seoul	13-Oct	서울특별시 은평구 가좌로 333	서울특별시 은평구 신사동 228-22	서울특별시청	02-2133-2871	37.593514	126.920289	2018-02-14
좌월어린이공원	갈현2동 513-1	서울특별시	은평구	기타	서울특별시청	Public WiFi@Seoul	12-Oct	서울특별시 은평구 갈현로25길 16	서울특별시 은평구 갈현2동 513-1	서울특별시청	02-2133-2871	37.617485	126.913254	2018-02-14
증산종합시장1	증산동 209-17 (증산초등학교 정문앞 CCTV 좌측)(도노감성어린이집앞)	서울특별시	은평구	기타	서울특별시청	Public WiFi@Seoul	14-Oct	서울특별시 은평구 증산서길 63	서울특별시 은평구 증산동 209-17 (증산초등학교 정문앞 CCTV 좌측)(도노감성어린이집앞)	서울특별시청	02-2133-2871	37.582439	126.905465	2018-02-14
증산종합시장3	증산동 184-9(불법주정차 CCTV)	서울특별시	은평구	기타	서울특별시청	Public WiFi@Seoul	14-Oct	서울특별시 은평구 증산로3길 12	서울특별시 은평구 증산동 184-9(불법주정차 CCTV)	서울특별시청	02-2133-2871	37.581476	126.905032	2018-02-14
참다래어린이공원	응암3동 120-22	서울특별시	은평구	기타	서울특별시청	Public WiFi@Seoul	12-Oct	서울특별시 은평구 응암로25길 12	서울특별시 은평구 응암3동 120-22	서울특별시청	02-2133-2871	37.595307	126.917145	2018-02-14
포수동어린이공원	응암1동 115-25 (포수동 어린이공원 은명초등학교 방향)	서울특별시	은평구	기타	서울특별시청	Public WiFi@Seoul	11-Oct	서울특별시 은평구 은평로8길 31	서울특별시 은평구 응암1동 115-25 (포수동 어린이공원 은명초등학교 방향)	서울특별시청	02-2133-2871	37.597759	126.91929	2018-02-14
폭포동은평노인종합복지관	진관동 산 108-23 12-197정류장	서울특별시	은평구	교통시설	서울특별시청	Public WiFi@Seoul	14-Oct	서울특별시 은평구 진관1로 77-8	서울특별시 은평구 진관동 산 108-23 12-197정류장	서울특별시청	02-2133-2871	37.631695	126.931079	2018-02-14
푸르지오 521동	진관동 155 12-350정류장	서울특별시	은평구	교통시설	서울특별시청	Public WiFi@Seoul	14-Oct	서울특별시 은평구 연서로48길 11	서울특별시 은평구 진관동 155 12-350정류장	서울특별시청	02-2133-2871	37.638443	126.935661	2018-02-14
은평구청	녹번동 84	서울특별시	은평구	관공서	서울특별시 은평구청	Public WiFi@Eunpyeong/PublicWiFi@Seoul	15-Nov	서울특별시 은평구 은평로 195	서울특별시 은평구 녹번동 84	서울특별시 은평구청	02-351-6364	37.602784	126.929164	2018-02-14
보건소	녹번동 84	서울특별시	은평구	관공서	서울특별시 은평구청	Public WiFi@Eunpyeong/PublicWiFi@Seoul	15-Nov	서울특별시 은평구 은평로 195	서울특별시 은평구 녹번동 84	서울특별시 은평구청	02-351-6364	37.602473	126.928844	2018-02-14
보건소(분소/지소)	불광2동 130-2 (불광보건분소)	서울특별시	은평구	관공서	미래부	Public WiFi FREE	15-Nov	서울특별시 은평구 연서로34길 11	서울특별시 은평구 불광2동 130-2 (불광보건분소)	미래부	1899-4876	37.621558	126.927698	2018-02-14
보건소(분소/지소)	불광2동 130-2 (불광보건분소)	서울특별시	은평구	관공서	서울특별시 은평구청	Public WiFi@Eunpyeong/PublicWiFi@Seoul	14-Oct	서울특별시 은평구 연서로34길 11	서울특별시 은평구 불광2동 130-2 (불광보건분소)	서울특별시 은평구청	02-351-6364	37.621558	126.927698	2018-02-14
구산보건지소	구산동 17-33	서울특별시	은평구	관공서	미래부	Public WiFi FREE	14-Oct	서울특별시 은평구 연서로 13길 29-7	서울특별시 은평구 구산동 17-33	미래부	1899-4876	37.609747	126.912784	2018-02-14
구산보건지소	구산동 17-33	서울특별시	은평구	관공서	서울특별시 은평구청	Public WiFi@Eunpyeong/PublicWiFi@Seoul	15-Nov	서울특별시 은평구 연서로 13길 29-7	서울특별시 은평구 구산동 17-33	서울특별시 은평구청	02-351-6364	37.609747	126.912784	2018-02-14
응암보건지소	응암3동 749-13	서울특별시	은평구	관공서	서울특별시 은평구청	Public WiFi@Eunpyeong/PublicWiFi@Seoul	15-Nov	서울특별시 은평구 가좌로 195	서울특별시 은평구 응암3동 749-13	서울특별시 은평구청	02-351-6364	37.596497	126.916017	2018-02-14
녹번동 주민센터	녹번동 87-1	서울특별시	은평구	관공서	미래부	Public WiFi FREE	15-Nov	서울특별시 은평구 은평로 195	서울특별시 은평구 녹번동 87-1	미래부	1899-4876	37.602194	126.929825	2018-02-14
녹번동 주민센터	녹번동 87-1	서울특별시	은평구	관공서	서울특별시 은평구청	Public WiFi@Eunpyeong/PublicWiFi@Seoul	11-Oct	서울특별시 은평구 은평로 195	서울특별시 은평구 녹번동 87-1	서울특별시 은평구청	02-351-6364	37.602194	126.929825	2018-02-14
불광1동 주민센터	불광1동 613-1	서울특별시	은평구	관공서	서울특별시 은평구청	Public WiFi@Eunpyeong/PublicWiFi@Seoul	15-Nov	서울특별시 은평구 진흥로15길 10	서울특별시 은평구 불광1동 613-1	서울특별시 은평구청	02-351-6364	37.610388	126.932075	2018-02-14
불광2동 주민센터	불광2동 81-2	서울특별시	은평구	관공서	서울특별시 은평구청	Public WiFi@Eunpyeong/PublicWiFi@Seoul	15-Nov	서울특별시 은평구 연서로41길 16	서울특별시 은평구 불광2동 81-2	서울특별시 은평구청	02-351-6364	37.62647	126.927267	2018-02-14
갈현1동 주민센터	갈현1동 436-14	서울특별시	은평구	관공서	미래부	Public WiFi FREE	15-Nov	서울특별시 은평구 갈현로 301	서울특별시 은평구 갈현1동 436-14	미래부	1899-4876	37.623707	126.916675	2018-02-14
갈현1동 주민센터	갈현1동 436-14	서울특별시	은평구	관공서	서울특별시 은평구청	Public WiFi@Eunpyeong/PublicWiFi@Seoul	15-Nov	서울특별시 은평구 갈현로 301	서울특별시 은평구 갈현1동 436-14	서울특별시 은평구청	02-351-6364	37.623707	126.916675	2018-02-14
갈현2동 주민센터	갈현2동 502-3	서울특별시	은평구	관공서	서울특별시 은평구청	Public WiFi@Eunpyeong/PublicWiFi@Seoul	16-Nov	서울특별시 은평구 연서로27길 31-6	서울특별시 은평구 갈현2동 502-3	서울특별시 은평구청	02-351-6364	37.618587	126.915839	2018-02-14
구산동 주민센터	구산동 27-5	서울특별시	은평구	관공서	서울특별시 은평구청	Public WiFi@Eunpyeong/PublicWiFi@Seoul	15-Nov	서울특별시 은평구 갈현로17길 10	서울특별시 은평구 구산동 27-5	서울특별시 은평구청	02-351-6364	37.611746	126.910389	2018-02-14
대조동 주민센터	대조동 214-7	서울특별시	은평구	관공서	미래부	Public WiFi FREE	15-Nov	서울특별시 은평구 연서로20길 24-3	서울특별시 은평구 대조동 214-7	미래부	1899-4876	37.614165	126.92081	2018-02-14
대조동 주민센터	대조동 214-7	서울특별시	은평구	관공서	서울특별시 은평구청	Public WiFi@Eunpyeong/PublicWiFi@Seoul	11-Oct	서울특별시 은평구 연서로20길 24-3	서울특별시 은평구 대조동 214-7	서울특별시 은평구청	02-351-6364	37.614165	126.92081	2018-02-14
응암1동 주민센터	응암1동 96-3	서울특별시	은평구	관공서	서울특별시 은평구청	Public WiFi@Eunpyeong/PublicWiFi@Seoul	15-Nov	서울특별시 은평구 백련산로 179	서울특별시 은평구 응암1동 96-3	서울특별시 은평구청	02-351-6364	37.600688	126.926813	2018-02-14
응암2동 주민센터	응암2동 229-13	서울특별시	은평구	관공서	서울특별시 은평구청	Public WiFi@Eunpyeong/PublicWiFi@Seoul	15-Nov	서울특별시 은평구 백련산로 100	서울특별시 은평구 응암2동 229-13	서울특별시 은평구청	02-351-6364	37.594607	126.923093	2018-02-14
응암3동 주민센터	응암3동 583-22	서울특별시	은평구	관공서	서울특별시 은평구청	Public WiFi@Eunpyeong/PublicWiFi@Seoul	15-Nov	서울특별시 은평구 불광천길 410-17	서울특별시 은평구 응암3동 583-22	서울특별시 은평구청	02-351-6364	37.592247	126.915727	2018-02-14
역촌동 주민센터	역촌동 62-26	서울특별시	은평구	관공서	미래부	Public WiFi FREE	15-Nov	서울특별시 은평구 연서로 59	서울특별시 은평구 역촌동 62-26	미래부	1899-4876	37.604405	126.915114	2018-02-14
역촌동 주민센터	역촌동 62-26	서울특별시	은평구	관공서	서울특별시 은평구청	Public WiFi@Eunpyeong/PublicWiFi@Seoul	17-Feb	서울특별시 은평구 연서로 59	서울특별시 은평구 역촌동 62-26	서울특별시 은평구청	02-351-6364	37.604405	126.915114	2018-02-14
신사1동 주민센터	신사1동 29-2	서울특별시	은평구	관공서	서울특별시 은평구청	Public WiFi@Eunpyeong/PublicWiFi@Seoul	15-Nov	서울특별시 은평구 은평로길 2	서울특별시 은평구 신사1동 29-2	서울특별시 은평구청	02-351-6364	37.597845	126.911774	2018-02-14
신사2동 주민센터	신사2동 163-17	서울특별시	은평구	관공서	미래부	Public WiFi FREE	15-Nov	서울특별시 은평구 증산로15길 47	서울특별시 은평구 신사2동 163-17	미래부	1899-4876	37.590284	126.908239	2018-02-14
신사2동 주민센터	신사2동 163-17	서울특별시	은평구	관공서	서울특별시 은평구청	Public WiFi@Eunpyeong/PublicWiFi@Seoul	15-Nov	서울특별시 은평구 증산로15길 47	서울특별시 은평구 신사2동 163-17	서울특별시 은평구청	02-351-6364	37.590284	126.908239	2018-02-14
증산동 주민센터	증산동 187-19	서울특별시	은평구	관공서	미래부	Public WiFi FREE	15-Nov	서울특별시 은평구 증산서길 89	서울특별시 은평구 증산동 187-19	미래부	1899-4876	37.584306	126.90704	2018-02-14
증산동 주민센터	증산동 187-19	서울특별시	은평구	관공서	서울특별시 은평구청	Public WiFi@Eunpyeong/PublicWiFi@Seoul	11-Oct	서울특별시 은평구 증산서길 89	서울특별시 은평구 증산동 187-19	서울특별시 은평구청	02-351-6364	37.584306	126.90704	2018-02-14
수색동 주민센터	수색동 136-50	서울특별시	은평구	관공서	서울특별시 은평구청	Public WiFi@Eunpyeong/PublicWiFi@Seoul	15-Nov	서울특별시 은평구 은평터널로 27	서울특별시 은평구 수색동 136-50	서울특별시 은평구청	02-351-6364	37.58414	126.897541	2018-02-14
진관동 주민센터	진관동 78	서울특별시	은평구	관공서	서울특별시 은평구청	Public WiFi@Eunpyeong/PublicWiFi@Seoul	15-Nov	서울특별시 은평구 진관2로 31	서울특별시 은평구 진관동 78	서울특별시 은평구청	02-351-6364	37.634983	126.921051	2018-02-14
드림스타트	신사2동 98-29	서울특별시	은평구	서민·복지시설	미래부	Public WiFi FREE	15-Nov	서울특별시 은평구 증산로401-18	서울특별시 은평구 신사2동 98-29	미래부	1899-4876	37.59211	126.912694	2018-02-14
드림스타트	신사2동 98-29	서울특별시	은평구	서민·복지시설	서울특별시 은평구청	Public WiFi@Eunpyeong/PublicWiFi@Seoul	14-Oct	서울특별시 은평구 증산로401-18	서울특별시 은평구 신사2동 98-29	서울특별시 은평구청	02-351-6364	37.59211	126.912694	2018-02-14
문화예술회관	녹번동 85-4	서울특별시	은평구	지역문화시설	서울특별시 은평구청	Public WiFi@Eunpyeong/PublicWiFi@Seoul	14-Oct	서울특별시 은평구 녹번로 16	서울특별시 은평구 녹번동 85-4	서울특별시 은평구청	02-351-6364	37.60363	126.927988	2018-02-14
새록어린이공원	녹번동 158-1	서울특별시	은평구	기타	서울특별시 은평구청	Public WiFi@Eunpyeong/PublicWiFi@Seoul	12-Oct	서울특별시 은평구 은평로13길 35	서울특별시 은평구 녹번동 158-1	서울특별시 은평구청	02-351-6364	37.603946	126.923701	2018-02-14
가양도서관	종합자료실	대전광역시	동구	관공서	SK	public wifi	2015-01-01	대전광역시 동구 우암로 277번길	대전광역시 동구 가양2동22-4	대전광역시 동구청	042-251-4174	36.34886	127.44493	2017-11-30
새락골어린이공원	신사1동 5-21	서울특별시	은평구	기타	서울특별시 은평구청	Public WiFi@Eunpyeong/PublicWiFi@Seoul	12-Oct	서울특별시 은평구 은평로3가길 34	서울특별시 은평구 신사1동 5-21	서울특별시 은평구청	02-351-6364	37.618637	126.916641	2018-02-14
지리산 나들이장터	시장주변	전남	구례군	서민/복지시설	SK	Public Wifi Free	14-Oct	산동면 지리산온천로280	산동면 관산리 712-3	안전건설과	(061)780-2499	35.318339	127.459862	2017-10-30
구례 상설시장	시장주변	전남	구례군	서민/복지시설	SK	Public Wifi Free	13-Oct	구례읍 상설시장길 8-1	구례읍 봉동리 380-4	안전건설과	(061)780-2499	35.209872	127.4654922	2017-10-30
간전면사무소	민원실	전남	구례군	관공서	SK	Public Wifi Free	12-Mar	간전면 안음길7	구례읍 간전면 간문리 277-1	안전건설과	(061)780-2499	35.1781073	127.544089	2017-10-30
광의면사무소	민원실	전남	구례군	관공서	SK	Public Wifi Free	12-Mar	광의면 구만제로341	광의면 연파리 844	안전건설과	(061)780-2499	35.2599379	127.4398702	2017-10-30
구례공설운동장 1F	실내	전남	구례군	지역문화시설	SK	Public Wifi Free	12-Mar	구례읍 봉북리	구례읍 봉북리 1423-1	안전건설과	(061)780-2499	35.2167701	127.4664136	2017-10-30
구례읍사무소 1F	민원실	전남	구례군	관공서	SK	Public Wifi Free	12-Mar	구례읍 봉성산길 12	구례읍 봉동리 295-1	안전건설과	(061)780-2499	35.2087623	127.4630206	2017-10-30
구례군보건의료원	실내	전남	구례군	서민/복지시설	SK	Public Wifi Free	12-Mar	구례읍 동편제길 30	구례읍 백련리 576	안전건설과	(061)780-2499	35.2159325	127.4614696	2017-10-30
구례군장애인복지관	실내	전남	구례군	서민/복지시설	SK	Public Wifi Free	12-Mar	구례읍 동편제길 30	구례읍 백련리 576	안전건설과	(061)780-2499	35.2159325	127.4614696	2017-10-30
구례종합복지관	실내	전남	구례군	서민/복지시설	SK	Public Wifi Free	12-Mar	구례읍 구례로 508	구례읍 봉동리 115-3	안전건설과	(061)780-2499	35.206381	127.4702596	2017-10-30
구례실내체육관	실내	전남	구례군	지역문화시설	SK	Public Wifi Free	12-Mar	구례읍 서시천로 76-11	구례읍 봉북리 25	안전건설과	(061)780-2499	35.2156961	127.4681594	2017-10-30
마산면사무소	민원실	전남	구례군	관공서	SK	Public Wifi Free	12-Mar	마산면 화엄사로 150	마산면 마산리 498-42	안전건설과	(061)780-2499	35.2229529	127.4874874	2017-10-30
문척면사무소	민원실	전남	구례군	관공서	SK	Public Wifi Free	12-Mar	문척면 수달생태로 268-12	문척면 월전리 769-1	안전건설과	(061)780-2499	35.1918518	127.4890949	2017-10-30
산동면사무소	민원실	전남	구례군	관공서	SK	Public Wifi Free	12-Mar	산동면 원촌길 114	산동면 원촌리 186	안전건설과	(061)780-2499	35.3158821	127.4395518	2017-10-30
용방면사무소	민원실	전남	구례군	관공서	SK	Public Wifi Free	12-Mar	용방면 하용길 5	용방면 용정리 167	안전건설과	(061)780-2499	35.2509126	127.4303402	2017-10-30
토지면사무소	민원실	전남	구례군	관공서	SK	Public Wifi Free	12-Mar	토지면 구산리211	토지면 구산리 211	안전건설과	(061)780-2499	35.1978236	127.526114	2017-10-30
청산원	시설내	충청북도	옥천군	관공서	SK	Public Wifi Free	16-Mar	충청북도 옥천군 옥천읍 삼청3길 48	충청북도 옥천군 옥천읍 삼청리 572-1	충청북도 옥천군청	080-0121-6000	36.2592855	127.5713665	2017-10-30
구산동 마을공원	구산동 341-1(구산동 마을공원)	서울특별시	은평구	기타	서울특별시청	Public WiFi@Seoul	17-Dec	서울특별시 은평구 서오릉로17길 5 옆	서울특별시 은평구 구산동 341-1(구산동 마을공원)	서울특별시청	02-2133-2871	37.614623	126.908399	2018-02-14
대조동 주요거리	대조동 194-27	서울특별시	은평구	기타	서울특별시청	Public WiFi@Seoul	17-Dec	서울특별시 은평구 연서로26길 23	서울특별시 은평구 대조동 194-27(효성빌딩 앞)	서울특별시청	02-2133-2871	37.61604	126.921481	2018-02-14
시장	문창시장 해성건강원	대전광역시	중구	기타	KT	Public WIFI	11-Dec	대전광역시 중구 문창로10번길 22	대전광역시 중구 문창동 364-12번지	대전광역시청	042-270-3303	36.315458	127.438588	2018-02-19
시장	문창시장	대전광역시	중구	기타	KT	Public WIFI	11-Dec	대전광역시 중구 문창로10번길 22	대전광역시 중구 문창동 364-12번지	대전광역시청	042-270-3303	36.314281	127.437495	2018-02-19
시장	문창시장 늘푸른청과	대전광역시	중구	기타	KT	Public WIFI	11-Dec	대전광역시 중구 문창로10번길 22	대전광역시 중구 문창동 364-12번지	대전광역시청	042-270-3303	36.314591	127.436297	2018-02-19
송북시장	경기도 평택시 탄현로346번길 24	경기도	평택시	서민·복지시설	public WiFi free		15-Nov	경기도 평택시 탄현로346번길 24	경기도 평택시 지산동 745-14	경기도 평택시청	031-8024-2441	37.082067	127.048342	2018-02-19
한국소리터	"2F(로비, 객석조정실, 남자분장대기실, 숙소좌.우측복도),1F(여자분장대기실, 강의실내, 회의실내,대연습실앞, 야외테라스),B1(전시관내, 통신실앞, 문화예술체험실내, 연습실내, 사무실앞)"	경기도	평택시	지역문화시설	public WiFi free		15-Nov	경기도 평택시 탄현로346번길 24	경기도 평택시 현덕면 권관리 302-1	경기도 평택시청	031-8024-2441	36.922019	126.913081	2018-02-19
안중시외버스터미널	"1F(대기실 및 휴게실앞, 푸드까페앞)"	경기도	평택시	교통시설	public WiFi free		15-Nov	경기도 평택시 안중읍 안현로서9길 14-4	경기도 평택시 안중읍 현화리 838	경기도 평택시청	031-8024-2441	36.977627	126.914575	2018-02-19
팽성복지센터	"3F(소회의실앞),2F(홀중앙, 소강당내, 대강당내),1F(홀중앙)"	경기도	평택시	서민·복지시설	public WiFi free		15-Nov	경기도 평택시 팽성읍 팽성남산4길 6	경기도 평택시 팽성읍 남산리 406-21	경기도 평택시청	031-8024-2441	36.958015	127.051149	2018-02-19
평택시보훈회관	"5F(대회의실내),4F(복도),3F(복도),2F(복도)"	경기도	평택시	서민·복지시설	public WiFi free		15-Nov	경기도 평택시 통복시장로16번길 28	경기도 평택시 통복동 89-1	경기도 평택시청	031-8024-2441	36.996134	127.077998	2018-02-19
청소년문화센터	"4F(다목적실앞), 3F(취미교실앞), 2F(문화휴게실앞, 시청각실내), 1F(소강당내, 대강당내, 청터북까페앞), B1(당구장앞, 식당내)"	경기도	평택시	지역문화시설	public WiFi free		15-Nov	경기도 평택시 평남로 616	경기도 평택시 합정동 690	경기도 평택시청	031-8024-2441	36.988444	127.100758	2018-02-19
북부복지타운&송탄보건소	"4F( 주민시설앞, 대강당내, 식당앞), 3F(대기실앞, 소강당내, 프로그램실앞), 2F(진료대기실안, 중앙홀, 대기실앞), 1F(물리치료실앞, 중앙홀, 다목적실앞)"	경기도	평택시	서민·복지시설	public WiFi free		15-Nov	경기도 평택시 서정로 295	경기도 평택시 서정동 산12	경기도 평택시청	031-8024-2441	37.066098	127.057305	2018-02-19
오성도서관	"1F(열람실), 2F(열람실)"	경기도	평택시	서민·복지시설	public WiFi free		16-Jul	경기도 평택시 오성새싹길 3	경기도 평택시 오성면 숙성리 129-3	경기도 평택시청	031-8024-2441	37.008547	126.980352	2018-02-19
시장	중리시장 승진야채	대전광역시	대덕구	기타	KT	Public WIFI	11-Dec	대전광역시 대덕구 중리북로37번길 26	대전광역시 대덕구 중리동368-7	대전광역시청	042-270-3303	36.364878	127.425868	2018-02-19
무봉산수련원	"3F(좌측휴게실, 우측휴게실, 숙소앞), 2F(좌측휴게실, 우측휴게실, 숙소앞, 집회장내), F1(강당중앙, 예절실앞, 휴게실, 숙소앞, 구내식당내)"	경기도	평택시	지역문화시설	public WiFi free		15-Nov	경기도 평택시 서정로 295	경기도 평택시 진위면 동천리 681	경기도 평택시청	031-8024-2441	37.107572	127.088627	2018-02-19
장당도서관	"B1(다목적실 내), 1F(로비, 안내, 복도), 2F(열람실), 3F(열람실)"	경기도	평택시	서민·복지시설	public WiFi free		16-Jul	경기도 평택시 장당길 116(장당동)	경기도 평택시 장당동 1-20	경기도 평택시청	031-8024-2441	37.052395	127.064609	2018-02-19
서정작은도서관	1F(실중앙)	경기도	평택시	서민·복지시설	public WiFi free		16-Jul	경기도 평택시 서정로 202(서정동)	경기도 평택시 서정동 876-4	경기도 평택시청	031-8024-2441	37.066146	127.055764	2018-02-19
포승작은도서관	1F(실중앙)	경기도	평택시	서민·복지시설	public WiFi free		16-Jul	경기도 평택시 포승읍 여술로 47	경기도 평택시 포승읍 도곡리 1110	경기도 평택시청	031-8024-2441	36.989867	126.847676	2018-02-19
청북작음도서관	"2F( 열람실, 다용도실)"	경기도	평택시	서민·복지시설	public WiFi free		16-Jul	경기도 평택시 청북읍 안청로2길 60	경기도 평택시 청북읍 옥길리 1142	경기도 평택시청	031-8024-2441	37.020167	126.917991	2018-02-19
자원봉사센터	2F(사무실)	경기도	평택시	서민·복지시설	public WiFi free		16-Jul	경기도 평택시 중앙로 275(비전동)	경기도 평택시 비전동 846	경기도 평택시청	031-8024-2441	36.992273	127.112806	2018-02-19
소풍정원 캠핑장	야외 화장실 2개소 외벽	경기도	평택시	지역문화시설	public WiFi free		17-Jul	경기도 평택시 고덕면 새악길 43-42 일원	경기도 평택시 고덕면 궁리 476-12 일원	경기도 평택시청	031-8024-2441	37.011501	127.017358	2018-02-19
부개어린이도서관	전체	인천광역시	부평구	교육시설	KT		12-Jun	인천광역시 부평구 동수로 166		인천광역시 부평구청	032-509-6174	37.485484	126.737018	2018-02-14
인천나비공원	전체	인천광역시	부평구	지역문화시설	LGU+		11-Jan	인천광역시 부평구 평천로 26-47		인천광역시 부평구청	032-509-6174	37.520237	126.692663	2018-02-14
부평깡시장	전체	인천광역시	부평구	기타	LGU+		13-Dec	인천광역시 부평구 주부토로32번길 25		인천광역시 부평구청	032-509-6174	37.497853	126.726528	2018-02-14
옥천청소년수련관	시설내	충청북도	옥천군	관공서	SK	Public Wifi Free	16-Apr	충청북도 옥천군 옥천읍 동부로 39	충청북도 옥천군 옥천읍 문정리 424-1	충청북도 옥천군청	080-0121-6000	36.3062833	127.5773776	2017-10-30
시장	중리시장	대전광역시	대덕구	기타	KT	Public WIFI	11-Dec	대전광역시 대덕구 중리북로37번길 26	대전광역시 대덕구 중리동368-7	대전광역시청	042-270-3303	36.365868	127.425981	2018-02-19
시장	삼성정육점	대전광역시	동구	기타	KT	Public WIFI	11-Dec	대전광역시 동구 대전로779번길 26	대전광역시 동구 원동 64-27번지	대전광역시청	042-270-3303	36.329089	127.431646	2018-02-19
시장	중앙상가 개성시대	대전광역시	동구	기타	KT	Public WIFI	11-Dec	대전광역시 동구 대전로791번길 38	대전광역시 동구 중동28-45번지	대전광역시청	042-270-3303	36.329576	127.431211	2018-02-19
시장	㈜중앙메가프라자 루디아	대전광역시	동구	기타	KT	Public WIFI	11-Dec	대전광역시 중구 중앙로200번길 85	대전광역시 동구 원동40-1번지	대전광역시청	042-270-3303	36.327082	127.433953	2018-02-19
공원	서대전광장 공연장위	대전광역시	중구	지역문화시설	KT	Public WIFI	11-Dec	대전광역시 중구 계백로1716번길 23	대전광역시 중구 문화1동 1-39	대전광역시청	042-270-3303	36.320795	127.410651	2018-02-19
공원	서대전광장 화장실 위	대전광역시	중구	지역문화시설	KT	Public WIFI	11-Dec	대전광역시 중구 계백로1716번길 23	대전광역시 중구 문화1동 1-39	대전광역시청	042-270-3303	36.321169	127.412508	2018-02-19
공원	유림공원	대전광역시	유성구	지역문화시설	KT	Public WIFI	11-Dec	대전광역시 유성구 봉명동2-1	대전광역시 유성구 봉명동2-1	대전광역시청	042-270-3303	36.360832	127.357955	2018-02-19
공원	한밭수목원	대전광역시	서구	지역문화시설	KT	Public WIFI	11-Dec	대전광역시 서구 둔산대로 155	대전광역시 서구 만년동 396	대전광역시청	042-270-3303	36.367493	127.387796	2018-02-19
공원	금강로하스공원 관리사무소	대전광역시	대덕구	지역문화시설	KT	Public WIFI	11-Dec	대전광역시 대덕구 대청로 607	대전광역시 대덕구 미호동57번지	대전광역시청	042-270-3303	36.473686	127.474126	2018-02-19
시청	대전광역시청 1층	대전광역시	서구	관공서	KT	Public WIFI	11-Dec	대전광역시 서구 둔산로 100	대전광역시 서구 둔산동 1420	대전광역시청	042-270-3303	36.350412	127.384847	2018-02-19
시청	대전광역시청 1층	대전광역시	서구	관공서	KT	Public WIFI	11-Dec	대전광역시 서구 둔산로 100	대전광역시 서구 둔산동 1420	대전광역시청	042-270-3303	36.350412	128.384847	2018-02-19
시청	대전광역시청 3층	대전광역시	서구	관공서	KT	Public WIFI	11-Dec	대전광역시 서구 둔산로 100	대전광역시 서구 둔산동 1420	대전광역시청	042-270-3303	36.350412	129.384847	2018-02-19
시청	대전광역시청 3층	대전광역시	서구	관공서	KT	Public WIFI	11-Dec	대전광역시 서구 둔산로 100	대전광역시 서구 둔산동 1420	대전광역시청	042-270-3303	36.350412	130.384847	2018-02-19
시청	대전광역시청 5층	대전광역시	서구	관공서	KT	Public WIFI	11-Dec	대전광역시 서구 둔산로 100	대전광역시 서구 둔산동 1420	대전광역시청	042-270-3303	36.350412	131.384847	2018-02-19
시청	대전광역시청 5층	대전광역시	서구	관공서	KT	Public WIFI	11-Dec	대전광역시 서구 둔산로 100	대전광역시 서구 둔산동 1420	대전광역시청	042-270-3303	36.350412	132.384847	2018-02-19
시청	대전광역시청 10층	대전광역시	서구	관공서	KT	Public WIFI	11-Dec	대전광역시 서구 둔산로 100	대전광역시 서구 둔산동 1420	대전광역시청	042-270-3303	36.350412	133.384847	2018-02-19
시청	대전광역시청 10층	대전광역시	서구	관공서	KT	Public WIFI	11-Dec	대전광역시 서구 둔산로 100	대전광역시 서구 둔산동 1420	대전광역시청	042-270-3303	36.350412	134.384847	2018-02-19
시청	대전광역시청 20층	대전광역시	서구	관공서	KT	Public WIFI	11-Dec	대전광역시 서구 둔산로 100	대전광역시 서구 둔산동 1420	대전광역시청	042-270-3303	36.350412	135.384847	2018-02-19
시청	대전광역시청 20층	대전광역시	서구	관공서	KT	Public WIFI	11-Dec	대전광역시 서구 둔산로 100	대전광역시 서구 둔산동 1420	대전광역시청	042-270-3303	36.350412	136.384847	2018-02-19
부평구청	전체	인천광역시	부평구	관공서	LGU+		11-Jan	인천광역시 부평구 부평대로 168		인천광역시 부평구청	032-509-6174	37.507033	126.721913	2018-02-14
부평구 의회	전체	인천광역시	부평구	관공서	LGU+		11-Jan	인천광역시 부평구 부평대로 168		인천광역시 부평구청	032-509-6174	37.507033	126.721913	2018-02-14
부평1동주민센터	민원실	인천광역시	부평구	관공서	LGU+		11-Jan	인천광역시 부평구 부평문화로37번길 1		인천광역시 부평구청	032-509-6174	37.494248	126.719975	2018-02-14
덕산시장	시장 내(다수)	충청남도	예산군	서민·복지시설	SK	Public WiFi		충청남도 예산군 덕산면 읍내북문길 14	충청남도 예산군 덕산면 읍내리 356-1	충청남도 예산군청	041-339-7244	36.7050825	126.6681901	2017-11-16
부평3동주민센터	민원실	인천광역시	부평구	관공서	LGU+		15-Oct	인천광역시 부평구 마장로 82		인천광역시 부평구청	032-509-6174	37.485997	126.708277	2018-02-14
삽교시장	시장 내(다수)	충청남도	예산군	서민·복지시설	SK	Public WiFi		충청남도 예산군 삽교읍 두리3길 50-7	충청남도 예산군 삽교읍 두리 568-37	충청남도 예산군청	041-339-7244	36.6871393	126.7412647	2017-11-16
부평5동주민센터	민원실	인천광역시	부평구	관공서	KT		11-Jan	인천광역시 부평구 부평문화로106번길 17		인천광역시 부평구청	032-509-6174	37.493623	126.728339	2018-02-14
부평6동주민센터	민원실	인천광역시	부평구	관공서	LGU+		15-Jan	인천광역시 부평구 육동로 13-5		인천광역시 부평구청	032-509-6174	37.486415	126.724442	2018-02-14
고산시외버스터미널	터미널내외부	전라북도	완주군	교통시설	SK		16-Oct	전라북도 완주군 고산면 읍내3길7-1		전라북도 완주군청	063-290-2442	35.9749337	127.2069998	2017-11-15
대둔산공용버스터미널	터미널 1F	전라북도	완주군	교통시설	SK	T wifi zone	16-Oct	전라북도 완주군 운주면 대둔산공원길 11		전라북도 완주군청	063-290-2442	36.1171784	127.3347673	2017-11-15
산곡3동주민센터	민원실	인천광역시	부평구	관공서	KT		11-Jan	인천광역시 부평구 경원대로 126-2		인천광역시 부평구청	032-509-6174	37.490646	126.709444	2018-02-14
산곡4동주민센터	민원실	인천광역시	부평구	관공서	KT		11-Jan	인천광역시 부평구 부흥로173번길 68		인천광역시 부평구청	032-509-6174	37.501704	126.711441	2018-02-14
완주군보건소	"지하1F, 1F, 2F"	전라북도	완주군	관공서	SK	T wifi zone	16-Oct	전라북도 완주군 삼례읍 삼봉로 215-2		전라북도 완주군청	063-290-3003	36.1171784	127.3347672	2017-11-15
청천2동주민센터	민원실	인천광역시	부평구	관공서	LGU+		11-Jan	인천광역시 부평구 마장로410번길 5		인천광역시 부평구청	032-509-6174	37.514816	126.704476	2018-02-14
갈산1동주민센터	민원실	인천광역시	부평구	관공서	KT		11-Jan	인천광역시 부평구 주부토로 254		인천광역시 부평구청	032-509-6174	37.517561	126.727161	2018-02-14
갈산2동주민센터	민원실	인천광역시	부평구	관공서	KT		11-Jan	인천광역시 부평구 주부토로 173		인천광역시 부평구청	032-509-6174	37.510728	126.725692	2018-02-14
삼례공용버스터미널	터미널 1F	전라북도	완주군	교통시설	SK	T wifi zone	16-Oct	전라북도 완주군 삼례읍 동학로28		전라북도 완주군청	063-290-2442	35.9115517	127.0709944	2017-11-15
삼산2동주민센터	민원실	인천광역시	부평구	관공서	KT		11-Jan	인천광역시 부평구 굴포로 137		인천광역시 부평구청	032-509-6174	37.511757	126.736385	2018-02-14
다애공동체	사무실	전라북도	완주군	서민·복지시설	SK		16-Oct	전라북도 완주군 봉동읍 제촌길 83-5		전라북도 완주군청	063-262-3927	35.9909362	127.1084237	2017-11-15
선덕보육원	"식당1F, 명덕생활관1F, 성덕생활관1F"	전라북도	완주군	서민·복지시설	SK	T wifi zone / Public wifi free	16-Nov	전라북도 완주군 소양면 신지송광로 533		전라북도 완주군청	063-245-8842	35.8935942	127.2077962	2017-11-15
예산상설시장	시장 내(다수)	충청남도	예산군	서민·복지시설	SK	Public WiFi		충청남도 예산군 예산읍 형제고개로 967	충청남도 예산군 예산읍 예산리 333-1	충청남도 예산군청	041-339-7244	36.6769853	126.8497003	2017-11-16
역전시장	시장 내(다수)	충청남도	예산군	서민·복지시설	SK	Public WiFi		충청남도 예산군 예산읍 역전로 84	충청남도 예산군 예산읍 주교리 220-3	충청남도 예산군청	041-339-7244	36.6867563	126.8300791	2017-11-16
십정1동주민센터	민원실	인천광역시	부평구	관공서	KT		12-Jun	인천광역시 부평구 열우물로 103		인천광역시 부평구청	032-509-6174	37.475791	126.696114	2018-02-14
십정2동주민센터	민원실	인천광역시	부평구	관공서	KT		11-Jan	인천광역시 부평구 동암산로33번길 6-7		인천광역시 부평구청	032-509-6174	37.473818	126.707888	2018-02-14
부평구보건소	민원실	인천광역시	부평구	관공서	KT		11-Jan	인천광역시 부평구 부흥로 291		인천광역시 부평구청	032-509-6174	37.498777	126.724251	2018-02-14
인천북구도서관	민원실	인천광역시	부평구	교육시설	KT		11-Jan	인천광역시 부평구 신트리로 21		인천광역시 부평구청	032-509-6174	37.506571	126.723584	2018-02-14
십정종합시장	전체	인천광역시	부평구	기타	LGU+		15-Jan	인천광역시 부평구 배곶남로21번길 18		인천광역시 부평구청	032-509-6174	37.473365	126.695456	2018-02-14
부평구청소년수련관	전체	인천광역시	부평구	교육시설	KT		15-Jan	인천광역시 부평구 체육관로 76		인천광역시 부평구청	032-509-6174	37.508244	126.740192	2018-02-14
부평구노인복지관	전체	인천광역시	부평구	서민복지시설	KT		13-Dec	인천광역시 부평구 굴포로 114		인천광역시 부평구청	032-509-6174	37.511138	126.733768	2018-02-14
부평장애인종합복지관	전체	인천광역시	부평구	서민복지시설	KT		13-Dec	인천광역시 부평구 일신로 25		인천광역시 부평구청	032-509-6174	37.482997	126.746163	2018-02-14
굿프랜드	전체	인천광역시	부평구	서민복지시설	LGU+		15-Jan	인천광역시 부평구 경인로701번길 26		인천광역시 부평구청	032-509-6174	37.472658	126.707289	2018-02-14
송암보호작업장	전체	인천광역시	부평구	서민복지시설	LGU+		15-Jan	인천광역시 부평구 일신로 25		인천광역시 부평구청	032-509-6174	37.482754	126.746289	2018-02-14
새감마을	마을 내(다수)	충청남도	예산군	서민·복지시설	SK	Public WiFi		충청남도 예산군 덕산면 봉운로 81-82	충청남도 예산군 덕산면 읍내리 394-6	충청남도 예산군청	041-339-7244	36.707807	126.6631526	2017-11-16
예당저수지청소년야영장	저수지 주변(다수)	충청남도	예산군	관광	SK	Public WiFi		충청남도 예산군 응봉면 예당관광로 164	충청남도 예산군 응봉면 후사리 84	충청남도 예산군청	041-339-7244	36.6378154	126.8003577	2017-11-16
예산군노인종합복지관	예산군노인종합복지관 내	충청남도	예산군	서민·복지시설	SK	Public WiFi		충청남도 예산군 예산읍 벚꽃로155번길 10	충청남도 예산군 예산읍 발연리 5-85	충청남도 예산군청	041-339-7244	36.7023384	126.8365161	2017-11-16
진흥종합시장	전체	인천광역시	부평구	기타	LGU+		15-Oct	인천광역시 부평구 부흥로304번길 27		인천광역시 부평구청	032-509-6174	37.496896	126.726215	2018-02-14
부평어울림센터	전체	인천광역시	부평구	관공서	LGU+		15-Oct	인천광역시 부평구 장제로 235		인천광역시 부평구청	032-509-6174	37.506549	126.730902	2018-02-14
동수작은도서관	전체	인천광역시	부평구	교육시설	LGU+		15-Oct	인천광역시 부평구 동수북로166번길 20		인천광역시 부평구청	032-509-6174	37.488019	126.724305	2018-02-14
산곡글향기도서관	전체	인천광역시	부평구	교육시설	LGU+		15-Oct	인천광역시 부평구 마장로319번길 52		인천광역시 부평구청	032-509-6174	37.506865	126.700245	2018-02-14
신례원역	신례원역 내	충청남도	예산군	교통시설	SK	Public WiFi		충청남도 예산군 예산읍 신례원로212번길 20-3	충청남도 예산군 예산읍 신례원리 244-2	충청남도 신례원역	041-334-7788	36.7268988	126.8483383	2017-11-16
생활체육관	생활체육관 내	충청남도	예산군	문화시설	SK	Public WiFi		충청남도 예산군 예산읍 예산로 354	충청남도 예산군 예산읍 향천리 267	충청남도 생활체육관	041-339-8264	36.6847469	126.8634176	2017-11-16
내동주민센터	1층	대전광역시	서구	관공서	KT	public wifi zone	16-Jan	대전광역시 서구 도솔로 247		대전서구청	042-611-6555	36.332162	127.377405	2018-02-13
예산역	예산역 내	충청남도	예산군	교통시설	SK	Public WiFi		충청남도 예산군 예산읍 역전로 83	충청남도 예산군 예산읍 주교리 22-4	충청남도 예산역	041-335-7788	36.6719936	126.8456712	2017-11-16
예산터미널	터미널 내	충청남도	예산군	교통시설	SK	Public WiFi		충청남도 예산군 예산읍 금오대로 35-14	충청남도 예산군 예산읍 산성리 216-3	충청남도 예산터미널	041-333-2921	36.6912904	126.8317571	2017-11-16
예산청소년수련관	수련관 내	충청남도	예산군	문화시설	SK	Public WiFi		충청남도 예산군 예산읍 벚꽃로 214	충청남도 예산군 예산읍 석양리 213-2	충청남도 예산군청	041-339-7244	36.6993954	126.8414433	2017-11-16
예산군립도서관	도서관 내	충청남도	예산군	관공서	SK	Public WiFi		충청남도 예산군 예산읍 벚꽃로 214	충청남도 예산군 예산읍 석양리 225-1	충청남도 예산군청	041-339-7244	36.6992803	126.8395269	2017-11-16
의좋은형제장터	시장 내(다수)	충청남도	예산군	서민·복지시설	SK	Public WiFi		충청남도 예산군 대흥면 의좋은형제길 7	충청남도 예산군 대흥면 상중리 274-1	충청남도 예산군청	041-339-7244	36.6069476	126.7921019	2017-11-16
아름다운집	시설 내부	충청남도	예산군	서민·복지시설	SK	Public WiFi		충청남도 예산군 신양면 불원시왕길 79-43	충청남도 예산군 신양면 불원리 129-9	충청남도 예산군청	041-339-7244	36.6250445	126.8854687	2017-11-16
예산추사의거리	거리 주변(다수)	충청남도	예산군	문화시설	SK	Public WiFi		충청남도 예산군 예산읍 예산로194번길 23	충청남도 예산군 예산읍 예산리 506-3	충청남도 예산군청	041-339-7244	36.6793519	126.8486839	2017-11-16
예산군공설운동장	운동장 내	충청남도	예산군	문화시설	SK	Public WiFi		충청남도 예산군 예산읍 예산로 320-17	충청남도 예산군 예산읍 향천리 257	충청남도 예산군청	041-339-7244	36.6771703	126.8610788	2017-11-16
충의사	충의사 내	충청남도	예산군	관광	SK	Public WiFi		충청남도 예산군 덕산면 덕산온천로 183-5	충청남도 예산군 덕산면 시량리 119-1	충청남도 예산군청	041-339-7244	36.6864596	126.6514507	2017-11-16
진도읍 5일장	조금시장내	전라남도	진도군	편의시설	SK	jindogun	17-Oct	전라남도 진도군 진도읍 조금시장길 25	전라남도 진도군 남동리 732-8	전라남도 진도군청	061-544-2181	34.478888	126.259999	2017-10-17
보건소	"로비, 대기실 등"	전라남도	진도군	서민·복지시설	SK	jindogun	17-Oct	전라남도 진도군 진도읍 남동1길 40-9	전라남도 진도군 진도읍 남동리 776-26 진도군보건소	전라남도 진도군청	061-544-2181	34.477777	126.265555	2017-10-17
광혜원보건지소	충청북도 진천군 광혜원면 화랑길 86	충청북도	진천군	관공서	SK	Public WiFi	14-Dec	충청북도 진천군 광혜원면 화랑길 86		진천군청	043-539-3192	36.99340789	127.4356849	2017-11-07
덕산보건지소	충청북도 진천군 덕산면 덕금로829	충청북도	진천군	관공서	SK	Public WiFi	14-Dec	충청북도 진천군 덕산면 덕금로829		진천군청	043-539-3192	36.91372236	127.5090776	2017-11-07
문백보건지소	충청북도 진천군 문백면 옥성1길 21	충청북도	진천군	관공서	SK	Public WiFi	14-Dec	충청북도 진천군 문백면 옥성1길 21		진천군청	043-539-3192	36.78466495	127.4373126	2017-11-07
백곡보건지소	충청북도 진천군 백곡면 장터길 15-13	충청북도	진천군	관공서	SK	Public WiFi	14-Dec	충청북도 진천군 백곡면 장터길 15-13		진천군청	043-539-3192	36.883783	127.377732	2017-11-07
이월보건지소	충청북도 진천군 이월면 진광로 729	충청북도	진천군	관공서	SK	Public WiFi	14-Dec	충청북도 진천군 이월면 진광로 729		진천군청	043-539-3192	36.92568609	127.4285776	2017-11-07
초평보건지소	충청북도 진천군 초평면 초등로 45-2	충청북도	진천군	관공서	SK	Public WiFi	14-Dec	충청북도 진천군 초평면 초등로 45-2		진천군청	043-539-3192	36.86585918	127.5638772	2017-11-07
뜰안지역아동센터	충청북도 진천군 이월면 대막2길 22	충청북도	진천군	서민·복지시설	SK	Public WiFi	15-Dec	충청북도 진천군 이월면 대막2길 22		진천군청	043-539-3192	36.93621599	127.4301477	2017-11-07
벧엘지역아동센터	충청북도 진천군 광혜원면 대금로 6-19	충청북도	진천군	서민·복지시설	SK	Public WiFi	15-Dec	충청북도 진천군 광혜원면 대금로 6-19		진천군청	043-539-3192	36.98723551	127.448192	2017-11-07
사랑나눔지역아동센터	충청북도 진천군 진천읍 진광로 72	충청북도	진천군	서민·복지시설	SK	Public WiFi	15-Dec	충청북도 진천군 진천읍 진광로 72		진천군청	043-539-3192	36.87072921	127.4428895	2017-11-07
사석보건진료소	충청북도 진천군 진천읍 금사로 395-1	충청북도	진천군	관공서	SK	Public WiFi	15-Dec	충청북도 진천군 진천읍 금사로 395-1		진천군청	043-539-3192	36.8255589	127.409943	2017-11-07
사양보건진료소	충청북도 진천군 문백면 사양길 36-5	충청북도	진천군	관공서	SK	Public WiFi	15-Dec	충청북도 진천군 문백면 사양길 36-5		진천군청	043-539-3192	36.836477	127.473886	2017-11-07
다모아아파트경로당	2층	대전광역시	서구	서민·복지시설	KT	public wifi zone	16-Jan	"대전광역시 서구 월평동로 83 (월평동, 다모아아파트)"		대전서구청	042-611-6555	36.362017	127.366929	2018-02-13
하나로아파트경로당	2층	대전광역시	서구	서민·복지시설	KT	public wifi zone	16-Jan	"대전광역시 서구 청사로 5 (월평동, 하나로아파트)"		대전서구청	042-611-6555	36.360888	127.364949	2018-02-13
전원아파트경로당	2층	대전광역시	서구	서민·복지시설	KT	public wifi zone	16-Jan	"대전광역시 서구 월평동로 50 (월평동, 전원아파트)"		대전서구청	042-611-6555	36.345605	127.356191	2018-02-13
서귀포의료원장례식장	건물내	제주특별자치도	서귀포시	관공서	KT			제주특별자치도 서귀포시 장수로 47		제주특별자치도청		33.2560963	126.5630644	2017-04-25
서구 보건소	"1,2,3,4층"	대전광역시	서구	관공서	KT	public wifi zone	16-Jan	대전광역시 서구 만년로 74		대전서구청	042-611-6555	36.367062	127.381105	2018-02-13
도토리보호작업장	1층	대전광역시	서구	서민·복지시설	KT	public wifi zone	16-Jan	대전광역시 서구 복수남로 30		대전서구청	042-611-6555	36.298337	127.378048	2018-02-13
연광실업보호작업장	1층	대전광역시	서구	서민·복지시설	KT	public wifi zone	16-Jan	대전광역시 서구 영골길 159		대전서구청	042-611-6555	36.225907	127.313697	2018-02-13
한터보호작업장	1층	대전광역시	서구	서민·복지시설	KT	public wifi zone	16-Jan	대전광역시 서구 삼보실길 123		대전서구청	042-611-6555	36.224258	127.334652	2018-02-13
정림원	1층	대전광역시	서구	서민·복지시설	KT	public wifi zone	16-Jan	대전광역시 서구 계백로 1249번안길 2		대전서구청	042-611-6555	36.304414	127.369647	2018-02-13
후생학원	1층	대전광역시	서구	서민·복지시설	KT	public wifi zone	16-Jan	대전광역시 서구 정림서로 138번길 65-5		대전서구청	042-611-6555	36.297807	127.367181	2018-02-13
정림사회복지관	"1,2,3층"	대전광역시	서구	서민·복지시설	LGU+	public wifi zone	16-Jan	대전광역시 서구 계백로1286벌길86		대전서구청	042-611-6555	36.304161	127.366882	2018-02-13
청소년수련관	충청북도 진천군 진천읍 포석길 37-10	충청북도	진천군	서민·복지시설	SK	Public WiFi	15-Dec	충청북도 진천군 진천읍 포석길 37-10		진천군청	043-539-3192	36.85695092	127.4386369	2017-11-07
진천시민지역아동센터	충청북도 진천군 진천읍 중앙동로 38-9	충청북도	진천군	서민·복지시설	SK	Public WiFi	15-Dec	충청북도 진천군 진천읍 중앙동로 38-9		진천군청	043-539-3192	36.85348049	127.4445666	2017-11-07
종합사회복지관	민원실	울산광역시	동구	서민·복지시설	SK	Public Wifi		울산광역시 동구 봉수로 155	울산광역시 동구 화정동 222	울산광역시 동구청	052-209-3140	35.506113	129.417309	2017-07-31
울산동구청 꽃바위문화관	민원실	울산광역시	동구	지역문화시설	SK	Public Wifi		울산광역시 동구 문현3길 6	울산광역시 동구 방어동 1120-1	울산광역시 동구청	052-209-3140	35.487061	129.411324	2017-07-31
울산동구청 국민체육센터	민원실	울산광역시	동구	지역문화시설	SK	Public Wifi		울산광역시 동구 봉수로 153	울산광역시 동구 화정동 208-20	울산광역시 동구청	052-209-3140	35.503497	129.416357	2017-07-31
대전시립박물관_별관	박물관내	대전광역시	유성구	지역문화시설	SK				대전 유성구 상대동 488	대전광역시 유성구청	042-611-2183	36.3376537	127.3357673	2017-05-31
탄방동청소년문화의집	1층	대전광역시	서구	서민·복지시설	LGU+	public wifi zone	16-Jan	"대전광역시 서구 문정로2길 51,224호(탄방동,시티빌3차)"		대전서구청	042-611-6555	36.345514	127.390718	2018-02-13
서구수화동통역센터	1층	대전광역시	서구	서민·복지시설	LGU+	public wifi zone	16-Jan	"대전광역시 서구 문정로2길 51,224호(탄방동,시티빌3차)"		대전서구청	042-611-6555	36.345514	127.390718	2018-02-13
도마1동주민센터	1층	대전광역시	서구	관공서	LGU+	public wifi zone	16-Jan	대전광역시 서구 도마3길 46		대전서구청	042-611-6555	36.315992	127.381132	2018-02-13
정림동주민센터	1층	대전광역시	서구	관공서	LGU+	public wifi zone	16-Jan	대전광역시 서구 정림동로 10		대전서구청	042-611-6555	36.304469	127.366733	2018-02-13
가수원동주민센터	1층	대전광역시	서구	관공서	LGU+	public wifi zone	16-Jan	대전광역시 서구 가수원로 105 (가수원동)		대전서구청	042-611-6555	36.303517	127.349365	2018-02-13
도마큰시장	전역	대전광역시	서구	기타	LGU+	public wifi zone	16-Jan	대전광역시 서구 도마2길 39		대전서구청	042-611-6555	36.314693	127.381411	2018-02-13
한민시장	전역	대전광역시	서구	기타	LGU+	public wifi zone	16-Jan	대전광역시 서구 가장로 94 (괴정동)		대전서구청	042-611-6555	36.334469	127.384284	2018-02-13
돈보스코의집	1층	대전광역시	서구	서민·복지시설	LGU+	public wifi zone	16-Jan	대전광역시 서구 구봉로 458-1 (정림동)		대전서구청	042-611-6555	36.299997	127.370379	2018-02-13
한걸음	1층	대전광역시	서구	서민·복지시설	LGU+	public wifi zone	16-Jan	대전광역시 서구 삼보실길 68		대전서구청	042-611-6555	36.222421	127.335315	2018-02-13
행복누림	1층	대전광역시	서구	서민·복지시설	LGU+	public wifi zone	16-Jan	대전광역시 서구 요골길 352		대전서구청	042-611-6555	36.256341	127.300072	2018-02-13
행복마을	1층	대전광역시	서구	서민·복지시설	LGU+	public wifi zone	16-Jan	대전광역시 서구 요골길 352		대전서구청	042-611-6555	36.244008	127.291404	2018-02-13
대전시립박물관	박물관내	대전광역시	유성구	지역문화시설	SK				대전 유성구 상대동 488	대전광역시 유성구청	042-611-2183	36.3362363	127.3349091	2017-05-31
도안문화공원	공원	대전광역시	유성구	지역문화시설	SK				대전 유성구 상대동 488	대전광역시 유성구청	042-611-2183	36.3367721	127.3334713	2017-05-31
삼산보건지소	민원실	인천광역시	강화군	관공서	SK	Public WiFi Free	15-Nov	인천광역시 강화군 삼산면 삼산북로 439		인천광역시 강화군청	032-930-3116	37.702676	126.3236385	2017-03-31
내가도서관	"열람실 1, 2층"	인천광역시	강화군	교육시설	SK	Public WiFi Free	15-Nov	인천광역시 강화군 내가면 강화서로 249		인천광역시 강화군청	032-930-3116	37.7196199	126.3899689	2017-03-31
진잠동 주민센터	민원실	대전광역시	유성구	관공서	SK				대전광역시 유성구 원내동 213-4	대전광역시 유성구청	042-611-2183	36.2997781	127.3164721	2017-05-31
두드림공연장	공연장	대전광역시	유성구	지역문화시설	SK				대전광역시 유성구 봉명동 574	대전광역시 유성구청	042-611-2183	36.3549371	127.3460531	2017-05-31
유성시장_장터공연장	공연장	대전광역시	유성구	지역문화시설	SK				대전광역시 유성구 장대동 279-4	대전광역시 유성구청	042-611-2183	36.3588941	127.3355631	2017-05-31
유성시장_SK	시장 내	대전광역시	유성구	기타	SK				대전광역시 유성구 장대동 191-7번지 일원	대전광역시 유성구청	042-611-2183	36.3577191	127.3339441	2017-05-31
족욕장	족욕장	대전광역시	유성구	관광	SK				대전광역시 유성구 봉명동 574 도로	대전광역시 유성구청	042-611-2183	36.3551703	127.3442721	2017-05-31
송강근린공원내공연장	공연장	대전광역시	유성구	지역문화시설	SK				대전광역시 유성구 송강동 9번지	대전광역시 유성구청	042-611-2183	36.4355958	127.3844981	2017-05-31
전민동EXPO근린공원공연장	공연장	대전광역시	유성구	지역문화시설	SK				대전광역시 유성구 전민동 467-3	대전광역시 유성구청	042-611-2183	36.3984811	127.4056371	2017-05-31
유림공원공연장	공연장	대전광역시	유성구	지역문화시설	SK				대전광역시 유성구 봉명동 496-39	대전광역시 유성구청	042-611-2183	36.3606723	127.3582077	2017-05-31
구청 세무과	민원실	대전광역시	유성구	관공서	SK				대전광역시 유성구 대학로 211	대전광역시 유성구청	042-611-2183	36.3619066	127.3559073	2017-05-31
구청 구민봉사실	민원실	대전광역시	유성구	관공서	SK				대전광역시 유성구 대학로 211	대전광역시 유성구청	042-611-2183	36.3622522	127.3567227	2017-05-31
유성구 보건소	민원실	대전광역시	유성구	관공서	SK				대전광역시 유성구 장대동 282-15	대전광역시 유성구청	042-611-2183	36.3581251	127.3354681	2017-05-31
원신흥동 주민센터	민원실	대전광역시	유성구	관공서	SK				대전광역시 유성구 원신흥동 491-14	대전광역시 유성구청	042-611-2183	36.3422825	127.3435478	2017-05-31
관평동 주민센터	민원실	대전광역시	유성구	관공서	SK				대전광역시 유성구 관평동 905	대전광역시 유성구청	042-611-2183	36.4231431	127.3887811	2017-05-31
구즉동 주민센터	민원실	대전광역시	유성구	관공서	SK				대전광역시 유성구 봉산동 294	대전광역시 유성구청	042-611-2183	36.4405091	127.3836611	2017-05-31
전민동 주민센터	민원실	대전광역시	유성구	관공서	SK				대전광역시 유성구 문지동 247-1	대전광역시 유성구청	042-611-2183	36.3955971	127.4071821	2017-05-31
신성동 주민센터	민원실	대전광역시	유성구	관공서	SK				대전광역시 유성구 하기동 18-6	대전광역시 유성구청	042-611-2183	36.3892401	127.3473751	2017-05-31
둔산2동주민센터	1층	대전광역시	서구	관공서	LGU+	public wifi zone	16-Jan	대전광역시 서구 둔산서로 80		대전서구청	042-611-6555	36.353791	127.383601	2018-02-13
가장동주민센터	1층	대전광역시	서구	관공서	KT	public wifi zone	16-Jan	대전광역시 서구 들말4길 6		대전서구청	042-611-6555	36.330055	127.385171	2018-02-13
만년동주민센터	1층	대전광역시	서구	관공서	KT	public wifi zone	16-Jan	대전광역시 서구 만년로 19		대전서구청	042-611-6555	36.367541	127.375041	2018-02-13
월평3동주민센터	1층	대전광역시	서구	관공서	KT	public wifi zone	16-Jan	대전광역시 서구 청사로  27-9		대전서구청	042-611-6555	36.360259	127.366882	2018-02-13
탄방동주민센터	1층	대전광역시	서구	관공서	KT	public wifi zone	16-Jan	대전광역시 서구 탄방로7번길 97		대전서구청	042-611-6555	36.346614	127.395379	2018-02-13
기성동주민센터	1층	대전광역시	서구	관공서	KT	public wifi zone	16-Jan	대전광역시 서구 흑석1길 16		대전서구청	042-611-6555	36.255725	127.341775	2018-02-13
서구노인복지관	1층	대전광역시	서구	서민·복지시설	LGU+	public wifi zone	16-Jan	대전광역시 서구 남선로 66 (탄방동)		대전서구청	042-611-6555	36.346157	127.397764	2018-02-13
관저사회복지관	"1,2,3층"	대전광역시	서구	서민·복지시설	LG	public wifi zone	16-Jan	대전광역시 서구 구봉로13		대전서구청	042-611-6555	36.298195	127.325384	2018-02-13
제주의료원	건물내	제주특별자치도	제주시	편의시설	KT			제주특별자치도 제주시 산천단남길 10		제주특별자치도청		33.4452709	126.5601453	2017-04-25
구세군 대전 여성의 집 (푸드뱅크)	1층	대전광역시	서구	서민·복지시설	LG	public wifi zone	16-Jan	대전광역시 서구 오량4길61		대전서구청	042-611-6555	36.308995	127.378333	2018-02-13
구세군대전여성의집	1층	대전광역시	서구	서민·복지시설	LG	public wifi zone	16-Jan	대전광역시 서구 오량4길61		대전서구청	042-611-6555	36.308995	127.378333	2018-02-13
도마큰시장	전역	대전광역시	서구	기타	LG	public wifi zone	16-Jan	대전광역시 서구 도마2길39		대전서구청	042-611-6555	36.314693	127.381411	2018-02-13
도토리주간보호센터	1층	대전광역시	서구	서민·복지시설	LG	public wifi zone	16-Jan	대전광역시 서구 괴정로184		대전서구청	042-611-6555	36.333048	127.390605	2018-02-13
라파주간보호센터	1층	대전광역시	서구	서민·복지시설	LG	public wifi zone	16-Jan	대전광역시 서구 정림서로134-15		대전서구청	042-611-6555	36.299429	127.363871	2018-02-13
아회장애아동주간보호센터	1층	대전광역시	서구	서민·복지시설	LG	public wifi zone	16-Jan	대전광역시 서구 갈마로211번길24		대전서구청	042-611-6555	36.336853	127.379763	2018-02-13
한민시장	전역	대전광역시	서구	관공서	LG	public wifi zone	16-Jan	대전광역시 서구 가장로94		대전서구청	042-611-6555	36.334469	127.384284	2018-02-13
한밭사회복지관	1층	대전광역시	서구	서민·복지시설	LG	public wifi zone	16-Jan	대전광역시 서구 월평북로11		대전서구청	042-611-6555	36.363571	127.370701	2018-02-13
대전서구청	"지하1층, 1층"	대전광역시	서구	관공서	LG	public wifi zone	16-Jan	대전광역시 서구 둔산서로100		대전서구청	042-611-6555	36.354983	127.383799	2018-02-13
대전시청	"1층, 2층"	대전광역시	서구	관공서	LG	public wifi zone	16-Jan	대전광역시 서구 둔산로100		대전서구청	042-611-6555	36.350382	127.384738	2018-02-13
노은2동 주민센터	민원실	대전광역시	유성구	관공서	SK				대전광역시 유성구 하기동 411-1	대전광역시 유성구청	042-611-2183	36.3894361	127.3207811	2017-05-31
노은1동 주민센터	민원실	대전광역시	유성구	관공서	SK				대전광역시 유성구 노은동 546	대전광역시 유성구청	042-611-2183	36.3673021	127.3185031	2017-05-31
온천2동 주민센터	민원실	대전광역시	유성구	관공서	SK				대전광역시 유성구 장대동 40-2	대전광역시 유성구청	042-611-2183	36.3653121	127.3335781	2017-05-31
온천1동 주민센터	민원실	대전광역시	유성구	관공서	SK				대전광역시 유성구 봉명동 451	대전광역시 유성구청	042-611-2183	36.3531051	127.3389681	2017-05-31
여성문화센타	건물 내	전라남도	광양시	서민·복지시설	SK	Public WiFi FREE	15-Jan	전라남도 광양시 광양읍 제철로 69	전라남도 광양시 광양읍 용강리 843-1	한국통신사업자연합회	1899-4876	34.959471	127.607131	2016-09-19
중마동사무소	건물 내	전라남도	광양시	관공서	SK	Public WiFi FREE	15-Jan	전라남도 광양시 중마중앙로 119 (중동)	전라남도 광양시 중동 1314-2	한국통신사업자연합회	1899-4876	34.940951	127.697661	2016-09-19
중마터미널	건물 내	전라남도	광양시	교통시설	SK	Public WiFi FREE	15-Jan	전라남도 광양시 공영로 91 (중동)	전라남도 광양시 중동 1732-2	한국통신사업자연합회	1899-4876	34.935981	127.699431	2016-09-19
아순타의 집	아순타의집	부산광역시	부산진구	서민·복지시설	LGU+	Public WiFi Free	18-Mar	부산광역시 부산진구 개금본동로17번길 12	부산광역시 부산진구 개금3동 24-36번지	부산광역시 부산진구청	051-605-4171	35.1586973	129.0241575	2018-02-01
신애지역아동센터	센터	부산광역시	부산진구	서민·복지시설	LGU+	Public WiFi Free	18-Mar	부산광역시 부산진구 백양순환로 137	부산광역시 부산진구 부암3동 410-5번지	부산광역시 부산진구청	051-605-4171	35.168558	129.0410086	2018-02-01
신애재활원	재활원	부산광역시	부산진구	서민·복지시설	KT	Public WiFi Free	18-Apr	부산광역시 부산진구 성지로62번길 40	부산광역시 부산진구 초읍동 525-1	부산광역시 부산진구청	051-605-4171	35.177394	129.0559943	2018-02-01
성지지역아동센터	센터	부산광역시	부산진구	서민·복지시설	KT	Public WiFi Free	18-Apr	부산광역시 부산진구 동평로94번길 28	부산광역시 부산진구 당감동 275-26	부산광역시 부산진구청	051-605-4171	35.1643241	129.0401921	2018-02-01
새생명지역아동센터	센터	부산광역시	부산진구	서민·복지시설	LGU+	Public WiFi Free	18-Mar	부산광역시 부산진구 신암로 51-5	부산광역시 부산진구 범천2동 1284-50번지	부산광역시 부산진구청	051-605-4171	35.146346	129.0552959	2018-02-01
사랑빛지역아동센터	센터	부산광역시	부산진구	서민·복지시설	LGU+	Public WiFi Free	18-Mar	부산광역시 부산진구 백양관문로77번길 99	부산광역시 부산진구 개금동 1-8	부산광역시 부산진구청	051-605-4171	35.1623986	129.025711	2018-02-01
청소년문화의집	건물 내	전라남도	광양시	서민·복지시설	SK	Public WiFi FREE	15-Jan	전라남도 광양시 광양읍 인덕로 1055	전라남도 광양시 광양읍 칠성리 1010-4	한국통신사업자연합회	1899-4876	34.976921	127.581891	2016-09-19
광양5일시장	건물 내	전라남도	광양시	지역문화시설	SK	Public WiFi FREE	15-Jan	전라남도 광양시 광양읍 백운로 3	전라남도 광양시 광양읍 목성리 696-3	한국통신사업자연합회	1899-4876	34.971251	127.590212	2016-09-19
광양공용버스터미널	건물 내	전라남도	광양시	교통시설	SK	Public WiFi FREE	15-Jan	전라남도 광양시 광양읍 순광로 688	전라남도 광양시 광양읍 인동리 413	한국통신사업자연합회	1899-4876	34.969681	127.590031	2016-09-19
부암역	역사	부산광역시	부산진구	교통시설	LGU+	Public WiFi Free	18-Mar	부산광역시 부산진구 가야대로 729	부산광역시 부산진구 부암1동 707	부산광역시 부산진구청	051-605-4171	35.1579105	129.0514241	2018-02-01
부암1동주민센터	민원실	부산광역시	부산진구	관공서	KT	Public WiFi Free	18-Mar	부산광역시 부산진구 신천대로241번길 41	부산광역시 부산진구 부암동 226	부산광역시 부산진구청	051-605-4171	35.1633084	129.0485503	2018-02-01
부산진구종합사회복지관	복지관	부산광역시	부산진구	서민·복지시설	KT	Public WiFi Free	18-Mar	부산광역시 부산진구 복지로 117-12	부산광역시 부산진구 개금동 산57-9	부산광역시 부산진구청	051-605-4171	35.1426631	129.0196571	2018-02-01
부산진구장애인복지관	복지관	부산광역시	부산진구	서민·복지시설	LGU+	Public WiFi Free	18-Mar	부산광역시 부산진구 전포대로300번길 6	부산광역시 부산진구 전포2동 581번지	부산광역시 부산진구청	051-605-4171	35.1640492	129.0658461	2018-02-01
부산진구다문화가족지원센터	센터	부산광역시	부산진구	서민·복지시설	KT	Public WiFi Free	18-Mar	부산광역시 부산진구 백양대로 160	부산광역시 부산진구 당감동 516-8	부산광역시 부산진구청	051-605-4171	35.1595497	129.0326632	2018-02-01
부산진구 청소년문화의집	문화의집	부산광역시	부산진구	서민·복지시설	KT	Public WiFi Free	18-Mar	부산광역시 부산진구 진남로328번길 62	부산광역시 부산진구 전포동 326-10	부산광역시 부산진구청	051-605-4171	35.1552996	129.0747629	2018-02-01
부산진구 보건소	민원실	부산광역시	부산진구	서민·복지시설	KT	Public WiFi Free	18-Mar	부산광역시 부산진구 황령대로8번길 36	부산광역시 부산진구 범천동 849-10	부산광역시 부산진구청	051-605-4171	35.1461958	129.0598958	2018-02-01
부산진구 노인복지관	복지관	부산광역시	부산진구	서민·복지시설	LGU+	Public WiFi Free	18-Mar	부산광역시 부산진구 전포대로300번길 6	부산광역시 부산진구 전포2동 581번지	부산광역시 부산진구청	051-605-4171	35.1640492	129.0658461	2018-02-01
대한적십자 부전점	민원실	부산광역시	부산진구	관공서	KT	Public WiFi Free	18-Apr	부산광역시 부산진구 중앙대로702번길 50	부산광역시 부산진구 부전2동 169-2	부산광역시 부산진구청	051-605-4171	35.1552338	129.0618677	2018-02-01
부산진구 건강증진센터	"2,3층"	부산광역시	부산진구	서민·복지시설	LGU+	Public WiFi Free	18-Mar	부산광역시 부산진구 시민공원로 30	부산광역시 부산진구 부암1동 666-16번지	부산광역시 부산진구청	051-605-4171	35.1628733	129.0531703	2018-02-01
부산데프주간보호센터	센터	부산광역시	부산진구	서민·복지시설	LGU+	Public WiFi Free	18-Mar	부산광역시 부산진구 새싹로52번길 39	부산광역시 부산진구 부전1동 346-89번지	부산광역시 부산진구청	051-605-4171	35.162382	129.0579073	2018-02-01
광양문화예술회관 대극장	건물 내	전라남도	광양시	지역문화시설	SK	Public WiFi FREE	15-Jan	전라남도 광양시 광양읍 향교길 9-30	전라남도 광양시 광양읍 우산리 536	한국통신사업자연합회	1899-4876	34.979861	127.587511	2016-09-19
부산 상공회의소	민원실	부산광역시	부산진구	관공서	LGU+	Public WiFi Free	18-Apr	부산광역시 부산진구 황령대로 24	부산광역시 부산진구 범천1동 853-1	부산광역시 부산진구청	051-605-4171	35.1477079	129.0621565	2018-02-01
부산진우체국	민원실	부산광역시	부산진구	관공서	KT	Public WiFi Free	18-Mar	부산광역시 부산진구 가야대로 579	부산광역시 부산진구 가야3동 256-7	부산광역시 부산진구청	051-605-4171	35.1549967	129.0353856	2018-02-01
부산진구청	1층 로비	부산광역시	부산진구	관공서	KT	Public WiFi Free	18-Mar	부산광역시 부산진구 시민공원로 30	부산광역시 부산진구 부암동 666-16	부산광역시 부산진구청	051-605-4171	35.1628868	129.0531778	2018-02-01
광양문화예술회관 소극장	건물 내	전라남도	광양시	지역문화시설	SK	Public WiFi FREE	15-Jan	전라남도 광양시 광양읍 향교길 9-30	전라남도 광양시 광양읍 우산리 536	한국통신사업자연합회	1899-4876	34.981271	127.586491	2016-09-19
서천공원	건물 내	전라남도	광양시	편의시설	SK	Public WiFi FREE	15-Jan	전라남도 광양시 광양읍 서천변로 111	전라남도 광양시 광양읍 칠성리 881-2	한국통신사업자연합회	1899-4876	34.972891	127.574691	2016-09-19
노인전문요양원	건물 내	전라남도	광양시	서민·복지시설	SK	Public WiFi FREE	15-Jan	전라남도 광양시 옥곡면 대치로 326-13	전라남도 광양시 옥곡면 대죽리 664	한국통신사업자연합회	1899-4876	35.004551	127.664371	2016-09-19
도시보건지소	건물 내	전라남도	광양시	서민·복지시설	SK	Public WiFi FREE	15-Jan	전라남도 광양시 담안2길 16-15	전라남도 광양시 태인동 398	한국통신사업자연합회	1899-4876	34.943191	127.749861	2016-09-19
청소년문화센터	건물 내	전라남도	광양시	서민·복지시설	SK	Public WiFi FREE	15-Jan	전라남도 광양시 광장로 14	전라남도 광양시 중동 1658	한국통신사업자연합회	1899-4876	34.937211	127.690881	2016-09-19
당평비전지역청소년센터	센터	부산광역시	부산진구	서민·복지시설	KT	Public WiFi Free	18-Mar	부산광역시 부산진구 백양대로136번길 37-9	부산광역시 부산진구 당감동 516-3	부산광역시 부산진구청	051-605-4171	35.161891	129.033257	2018-02-01
당감종합사회복지관	복지관	부산광역시	부산진구	서민·복지시설	KT	Public WiFi Free	18-Mar	부산광역시 부산진구 당감서로 16	부산광역시 부산진구 당감동 818-220	부산광역시 부산진구청	051-605-4171	35.1622517	129.0366152	2018-02-01
공원녹지사업소	건물 내	전라남도	광양시	관공서	SK	Public WiFi FREE	15-Jan	전라남도 광양시 광양읍 서천변로 177	전라남도 광양시 광양읍 구산리 516-1	한국통신사업자연합회	1899-4876	34.979061	127.573781	2016-09-19
광양시청 2청사 민원실	건물 내	전라남도	광양시	관공서	SK	Public WiFi FREE	15-Jan	전라남도 광양시 광양읍 인덕로 1100	전라남도 광양시 광양읍 칠성리 70	한국통신사업자연합회	1899-4876	34.980821	127.582761	2016-09-19
광양읍 매일시장	건물 내	전라남도	광양시	지역문화시설	SK	Public WiFi FREE	15-Jan	전라남도 광양시 광양읍 읍성3길 11	전라남도 광양시 광양읍 읍내리 252-1	한국통신사업자연합회	1899-4876	34.976381	127.585081	2016-09-19
금호동 주민센터	건물 내	전라남도	광양시	서민·복지시설	SK	Public WiFi FREE	15-Jan	전라남도 광양시 희망길 50 (금호동)	전라남도 광양시 금호동 624-9	한국통신사업자연합회	1899-4876	34.937531	127.723471	2016-09-19
금호동 주민자치센터	건물 내	전라남도	광양시	서민·복지시설	SK	Public WiFi FREE	15-Jan	전라남도 광양시 희망길 42	전라남도 광양시 금호동 624-22	한국통신사업자연합회	1899-4876	34.937071	127.723141	2016-09-19
다사랑복합문화예술회관	회관	부산광역시	부산진구	지역문화시설	LGU+	Public WiFi Free	18-Mar	부산광역시 부산진구 대학로 60	부산광역시 부산진구 가야1동 433-1번지	부산광역시 부산진구청	051-605-4171	35.1503499	129.0346375	2018-02-01
근로복지공단(부전)	공단	부산광역시	부산진구	관공서	LGU+	Public WiFi Free	18-Feb	부산광역시 부산진구 중앙대로 766	부산광역시 부산진구 부전1동 91-5	부산광역시 부산진구청	051-605-4171	35.1602314	129.0617925	2018-02-01
개금시장	시장	부산광역시	부산진구	서민·복지시설	KT	Public WiFi Free	18-Jun	부산광역시 부산진구 냉정로 227-1	부산광역시 부산진구 개금동 549-13	부산광역시 부산진구청	051-605-4171	35.1536815	129.0267564	2018-02-01
개금사회복지관	복지관	부산광역시	부산진구	서민·복지시설	KT	Public WiFi Free	18-Mar	부산광역시 부산진구 백양관문로77번길 140	부산광역시 부산진구 개금동 1-1	부산광역시 부산진구청	051-605-4171	35.1617713	129.0224823	2018-02-01
마동 체육공원	건물 내	전라남도	광양시	편의시설	SK	Public WiFi FREE	15-Jan	전라남도 광양시 무등길 90	전라남도 광양시 마동 700-10	한국통신사업자연합회	1899-4876	34.952161	127.693221	2016-09-19
옥곡5일시장	건물 내	전라남도	광양시	지역문화시설	SK	Public WiFi FREE	15-Jan	전라남도 광양시 옥곡면 큰골1길 2-26	전라남도 광양시 옥곡면 신금리 1337-1	한국통신사업자연합회	1899-4876	34.988361	127.700441	2016-09-19
중동 근린공원	건물 내	전라남도	광양시	편의시설	SK	Public WiFi FREE	15-Jan	전라남도 광양시 공영로 40 (중동)	전라남도 광양시 중동 1673	한국통신사업자연합회	1899-4876	34.935391	127.691611	2016-09-19
중앙하수처리장	건물 내	전라남도	광양시	관공서	SK	Public WiFi FREE	15-Jan	전라남도 광양시 중마로 60	전라남도 광양시 중동 308-124	한국통신사업자연합회	1899-4876	34.928771	127.689321	2016-09-19
광양시립도서관 별관	건물 내	전라남도	광양시	교육시설	SK	Public WiFi FREE	15-Jan	전라남도 광양시 광양읍 향교길 9-30	전라남도 광양시 광양읍 우산리 536	한국통신사업자연합회	1899-4876	34.980341	127.587321	2016-09-19
광양시립도서관 본관	건물 내	전라남도	광양시	교육시설	SK	Public WiFi FREE	15-Jan	전라남도 광양시 광양읍 향교길 9-30	전라남도 광양시 광양읍 우산리 536	한국통신사업자연합회	1899-4876	34.980342	127.587621	2016-09-19
광양시립중마도서관_1층	건물 내	전라남도	광양시	교육시설	SK	Public WiFi FREE	15-Jan	전라남도 광양시 시청로 33	전라남도 광양시 중동 1313	한국통신사업자연합회	1899-4876	34.937572	127.690331	2016-09-19
부산어린이대공원	공원	부산광역시	부산진구	지역문화시설	KT	Public WiFi Free	18-Sep	부산광역시 부산진구 새싹로 295	부산광역시 부산진구 초읍동 43	부산광역시 부산진구청	051-605-4171	35.184631	129.043471	2018-02-01
광양시립중마도서관_2층	건물 내	전라남도	광양시	교육시설	SK	Public WiFi FREE	15-Jan	전라남도 광양시 시청로 33	전라남도 광양시 중동 1313	한국통신사업자연합회	1899-4876	34.937572	127.690331	2016-09-19
삼성전자서비스(주) 서면	매장	부산광역시	부산진구	기타	LGU+	Public WiFi Free	18-Sep	부산광역시 부산진구 신천대로 222	부산광역시 부산진구 부암동 123-1	부산광역시 부산진구청	051-605-4171	35.162164	129.051423	2018-02-01
부산시민공원 역사관	역사관	부산광역시	부산진구	지역문화시설	LGU+	Public WiFi Free	18-Sep	부산광역시 부산진구 시민공원로 73	부산광역시 부산진구 범전동 195	부산광역시 부산진구청	051-605-4171	35.167101	129.054661	2018-02-01
부산광역시립 시민도서관	도서관	부산광역시	부산진구	지역문화시설	KT	Public WiFi Free	18-Sep	부산광역시 부산진구 월드컵대로 462	부산광역시 부산진구 초읍동 산 51-6	부산광역시 부산진구청	051-605-4171	35.183522	129.050224	2018-02-01
부산백병원	병원	부산광역시	부산진구	서민·복지시설	LGU+	Public WiFi Free	18-Sep	부산광역시 부산진구 복지로 75	부산광역시 부산진구 개금동 633-165	부산광역시 부산진구청	051-605-4171	35.146138	129.020875	2018-02-01
부산 CBS	CBS	부산광역시	부산진구	기타	LGU+	Public WiFi Free	18-Sep	부산광역시 부산진구 신암로 141	부산광역시 부산진구 범천동 1155-2	부산광역시 부산진구청	051-605-4171	35.152992	129.049312	2018-02-01
동의의료원	의료원	부산광역시	부산진구	서민·복지시설	LGU+	Public WiFi Free	18-Sep	부산광역시 부산진구 양정로 62	부산광역시 부산진구 양정동 산 45-1	부산광역시 부산진구청	051-605-4171	35.169764	129.076783	2018-02-01
서면역1호선	역사	부산광역시	부산진구	교통시설	LGU+	Public WiFi Free	18-Sep	부산광역시 부산진구 중앙대로 730	부산광역시 부산진구 부전동 573-1	부산광역시 부산진구청	051-605-4171	35.156922	129.059125	2018-02-01
한울타리지역아동센터	센터	부산광역시	부산진구	서민·복지시설	LGU+	Public WiFi Free	18-May	부산광역시 부산진구 서전로47번길 48	부산광역시 부산진구 전포2동 638-7번지	부산광역시 부산진구청	051-605-4171	35.1599808	129.0649268	2018-02-01
평강지역아동센터	센터	부산광역시	부산진구	서민·복지시설	LGU+	Public WiFi Free	18-May	부산광역시 부산진구 중앙대로 978	부산광역시 부산진구 양정2동 145-3번지	부산광역시 부산진구청	051-605-4171	35.1765337	129.0743937	2018-02-01
축복지역아동센터	센터	부산광역시	부산진구	서민·복지시설	LGU+	Public WiFi Free	18-May	부산광역시 부산진구 당감서로98번길 20-22	부산광역시 부산진구 부암3동 506-1번지	부산광역시 부산진구청	051-605-4171	35.1687073	129.0366357	2018-02-01
광양시립중마도서관_3층	건물 내	전라남도	광양시	교육시설	SK	Public WiFi FREE	15-Jan	전라남도 광양시 시청로 33	전라남도 광양시 중동 1313	한국통신사업자연합회	1899-4876	34.937572	127.690331	2016-09-19
전포지역아동센터	센터	부산광역시	부산진구	서민·복지시설	LGU+	Public WiFi Free	18-May	부산광역시 부산진구 서전로58번길 16	부산광역시 부산진구 전포1동 207-75번지	부산광역시 부산진구청	051-605-4171	35.1570828	129.0659728	2018-02-01
전포사회복지관	복지관	부산광역시	부산진구	서민·복지시설	LGU+	Public WiFi Free	18-Feb	부산광역시 부산진구 전포대로190번길 35	부산광역시 부산진구 전포1동 343-5	부산광역시 부산진구청	051-605-4171	35.153656	129.067529	2018-02-01
전포2동주민센터	민원실	부산광역시	부산진구	관공서	KT	Public WiFi Free	18-Mar	부산광역시 부산진구 동성로118번길 34	부산광역시 부산진구 전포동 175-26	부산광역시 부산진구청	051-605-4171	35.1616893	129.066199	2018-02-01
광양시보건소_건강증진센터	건물 내	전라남도	광양시	서민·복지시설	SK	Public WiFi FREE	15-Jan	전라남도 광양시 광양읍 인덕로 1100	전라남도 광양시 광양읍 칠성리 70	한국통신사업자연합회	1899-4876	34.981042	127.583561	2016-09-19
이신호뷰티건물	건물	부산광역시	부산진구	기타	LGU+	Public WiFi Free	18-Mar	부산광역시 부산진구 서면로 52	부산광역시 부산진구 부전2동 242-20	부산광역시 부산진구청	051-605-4171	35.1552707	129.0580386	2018-02-01
육아종합지원센터	센터	부산광역시	부산진구	서민·복지시설	KT	Public WiFi Free	18-Mar	부산광역시 부산진구 가야대로587번길 21-21	부산광역시 부산진구 가야동 258-2	부산광역시 부산진구청	051-605-4171	35.1549123	129.0359933	2018-02-01
광양시보건소_재활프로그램실	건물 내	전라남도	광양시	서민·복지시설	SK	Public WiFi FREE	15-Jan	전라남도 광양시 광양읍 인덕로 1100	전라남도 광양시 광양읍 칠성리 70	한국통신사업자연합회	1899-4876	34.980562	127.583731	2016-09-19
광양시수화통역센터	건물 내	전라남도	광양시	서민·복지시설	SK	Public WiFi FREE	15-Jan	전라남도 광양시 구마10길 25	전라남도 광양시 중동 1512-11	한국통신사업자연합회	1899-4876	34.949512	127.687431	2016-09-19
에이스지역아동센터	센터	부산광역시	부산진구	서민·복지시설	LGU+	Public WiFi Free	18-Mar	부산광역시 부산진구 가야대로703번나길 23	부산광역시 부산진구 당감2동 93-15번지	부산광역시 부산진구청	051-605-4171	35.1578334	129.0472454	2018-02-01
양정청소년수련관	청소년 문화의집	부산광역시	부산진구	서민·복지시설	LGU+	Public WiFi Free	18-Mar	부산광역시 부산진구 동평로405번길 81	부산광역시 부산진구 양정2동 260-5번지	부산광역시 부산진구청	051-605-4171	35.177257	129.0717253	2018-02-01
양정청소년수련관	수련관	부산광역시	부산진구	서민·복지시설	LGU+	Public WiFi Free	18-Jun	부산광역시 부산진구 동평로405번길 85	부산광역시 부산진구 양정동 260-5	부산광역시 부산진구청	051-605-4171	35.1772767	129.0717285	2018-02-01
광양시장애인종합복지관	건물 내	전라남도	광양시	서민·복지시설	SK	Public WiFi FREE	15-Jan	전라남도 광양시 광양읍 대림오성로 117	전라남도 광양시 광양읍 덕례리 1724-3	한국통신사업자연합회	1899-4876	34.965022	127.574331	2016-09-19
광양읍 노인복지회관	건물 내	전라남도	광양시	서민·복지시설	SK	Public WiFi FREE	15-Jan	전라남도 광양시 광양읍 백운로 8-3	전라남도 광양시 광양읍 목성리 690-8	한국통신사업자연합회	1899-4876	34.970522	127.591021	2016-09-19
광안리해수욕장	게스후레스토랑앞	부산광역시	수영구	관광	부산광역시	Dynamic Busan	16-Oct	부산광역시 수영구 광안해변로 183	부산광역시 수영구 광안동 200-1	부산광역시	051-888-4601	35.153144	129.118661	2018-01-22
광안리해수욕장	광남초등학교 앞	부산광역시	수영구	관광	부산광역시	Dynamic Busan	16-Oct	부산광역시 수영구 광안해변로54번길 222	부산광역시 수영구 남천동 147-2	부산광역시	051-888-4601	35.146116	129.114781	2018-01-22
광안리해수욕장	삼익비치타운301동앞	부산광역시	수영구	관광	부산광역시	Dynamic Busan	16-Oct	부산광역시 수영구 남천동 148-6	부산광역시 수영구 남천동 148-6	부산광역시	051-888-4601	35.146059	129.117613	2018-01-22
광안리해수욕장	엘모텔 GS25앞	부산광역시	수영구	관광	부산광역시	Dynamic Busan	16-Oct	부산광역시 수영구 광안해변로 259	부산광역시 수영구 민락동 177-8	부산광역시	051-888-4601	35.156367	129.122167	2018-01-22
광안리해수욕장	씨사이드웨딩홀 앞	부산광역시	수영구	관광	부산광역시	Dynamic Busan	16-Oct	부산광역시 수영구 수변로 29	부산광역시 수영구 민락동 181-223	부산광역시	051-888-4601	35.15949	129.124	2018-01-22
광안리해수욕장	부산시수협방파제	부산광역시	수영구	관광	부산광역시	Dynamic Busan	16-Oct	부산광역시 수영구 민락동 113-53	부산광역시 수영구 민락동 113-53	부산광역시	051-888-4601	35.153979	129.131236	2018-01-22
광안리해수욕장	수변공원끝부분	부산광역시	수영구	관광	부산광역시	Dynamic Busan	16-Oct	부산광역시 수영구 민락수변로 125	부산광역시 수영구 민락동 110-19	부산광역시	051-888-4601	35.154949	129.133841	2018-01-22
광양읍사무소	건물 내	전라남도	광양시	관공서	SK	Public WiFi FREE	15-Jan	전라남도 광양시 남등길 6	전라남도 광양시 광양읍 칠성리 946	한국통신사업자연합회	1899-4876	34.973351	127.580981	2016-09-19
광양항 국제여객선터미널	건물 내	전라남도	광양시	기타	SK	Public WiFi FREE	15-Jan	전라남도 광양시 항만9로 70	전라남도 광양시 중동 1893	한국통신사업자연합회	1899-4876	34.921921	127.696981	2016-09-19
광영동사무소	건물 내	전라남도	광양시	관공서	SK	Public WiFi FREE	15-Jan	전라남도 광양시 정수2길 47	전라남도 광양시 광영동 795-2	한국통신사업자연합회	1899-4876	34.962871	127.722031	2016-09-19
광영상설시장	건물 내	전라남도	광양시	지역문화시설	SK	Public WiFi FREE	15-Jan	전라남도 광양시 광영시장길 19	전라남도 광양시 광영동 682	한국통신사업자연합회	1899-4876	34.961391	127.720471	2016-09-19
동부지역농기계임대사업장	건물 내	전라남도	광양시	서민·복지시설	SK	Public WiFi FREE	15-Jan	전라남도 광양시 진상면 지원길 16	전라남도 광양시 진상면 지원리 1528-1	한국통신사업자연합회	1899-4876	35.016731	127.724421	2016-09-19
봉강면사무소	건물 내	전라남도	광양시	관공서	SK	Public WiFi FREE	15-Jan	전라남도 광양시 봉강면 조양길 46	전라남도 광양시 봉강면 봉당리 467-10	한국통신사업자연합회	1899-4876	35.011431	127.581221	2016-09-19
남부산우체국	민원실	부산광역시	수영구	관공서	KT	Public WiFi	13-Oct	부산광역시 수영구 수영로 448	부산광역시 수영구 남천1동 27-4번지	부산광역시	051-888-4601	35.14551	129.1103	2018-01-22
남천1동 주민센터	민원실	부산광역시	수영구	관공서	LGU+	Public WiFi	14-Sep	부산광역시 수영구 남천동로 13(남천동)	부산광역시 수영구 남천동 14-28	부산광역시	051-888-4601	35.142697	129.110318	2018-01-22
남천2동 주민센터	민원실	부산광역시	수영구	관공서	LGU+	Public WiFi	14-Sep	부산광역시 수영구 광안해변로99(남천동)	부산광역시 수영구 남천동 148-75	부산광역시	051-888-4601	35.143818	129.114759	2018-01-22
봉강보건지소	건물 내	전라남도	광양시	서민·복지시설	SK	Public WiFi FREE	15-Jan	전라남도 광양시 봉강면 비봉길 1	전라남도 광양시 봉강면 봉당리 718	한국통신사업자연합회	1899-4876	35.011491	127.580613	2016-09-19
남천역	역사	부산광역시	수영구	교통시설	LGU+	Public WiFi	13-Oct	부산광역시 수영구 수영로 408	부산광역시 수영구 남천동 19	부산광역시	051-888-4601	35.142318	129.108617	2018-01-22
남천해변시장	시장	부산광역시	수영구	서민·복지시설	LGU+	Public WiFi	14-Sep	부산광역시 수영구 광안해변로15번길 77 (남천동)	부산광역시 수영구 남천동 556	부산광역시	051-888-4601	35.160599	129.112509	2018-01-22
도영하우스	도영하우스	부산광역시	수영구	서민·복지시설	LGU+	Public WiFi	14-Sep	부산광역시 수영구 망미 번영로16번 나길4 (광안동)	부산광역시 수영구 광안동 1041-15	부산광역시	051-888-4601	35.167853	129.110008	2018-01-22
동산원	동산원	부산광역시	수영구	서민·복지시설	LGU+	Public WiFi	13-Oct	부산광역시 수영구 광일로 29번길 42	부산광역시 수영구 광안1동 536-44	부산광역시	051-888-4601	35.160614	129.109941	2018-01-22
망미1동 복합청사	민원실	부산광역시	수영구	관공서	LGU+	Public WiFi	14-Sep	부산광역시 수영구 연수로315번길 23(망미동)	부산광역시 수영구 망미동 640-15	부산광역시	051-888-4601	35.173438	129.104945	2018-01-22
망미2동주민센터	민원실	부산광역시	수영구	관공서	LGU+	Public WiFi	14-Sep	부산광역시 수영구 구락로81번길 40 (망미동)	부산광역시 수영구 망미동 257-2	부산광역시	051-888-4601	35.175286	129.115263	2018-01-22
옥곡면사무소	건물 내	전라남도	광양시	관공서	SK	Public WiFi FREE	15-Jan	전라남도 광양시 옥곡면 옥진로 656	전라남도 광양시 옥곡면 신금리 1375-3	한국통신사업자연합회	1899-4876	34.989512	127.698851	2016-09-19
옥곡보건지소	건물 내	전라남도	광양시	서민·복지시설	SK	Public WiFi FREE	15-Jan	전라남도 광양시 옥곡면 옥진로 658	전라남도 광양시 옥곡면 신금리 1378-2	한국통신사업자연합회	1899-4876	34.989031	127.698761	2016-09-19
옥룡보건지소	건물 내	전라남도	광양시	서민·복지시설	SK	Public WiFi FREE	15-Jan	전라남도 광양시 옥룡면 신재로 555	전라남도 광양시 옥룡면 운평리 753-3	한국통신사업자연합회	1899-4876	35.011311	127.618631	2016-09-19
중마노인복지관	건물 내	전라남도	광양시	서민·복지시설	SK	Public WiFi FREE	15-Jan	전라남도 광양시 중동로 50	전라남도 광양시 중동 1359-3	한국통신사업자연합회	1899-4876	34.940891	127.694081	2016-09-19
중마보건지소	건물 내	전라남도	광양시	서민·복지시설	SK	Public WiFi FREE	15-Jan	전라남도 광양시 중동로 42	전라남도 광양시 중동 1359-2	한국통신사업자연합회	1899-4876	34.940681	127.693313	2016-09-19
중마시장	건물 내	전라남도	광양시	지역문화시설	SK	Public WiFi FREE	15-Jan	전라남도 광양시 중마중앙로 88	전라남도 광양시 중동 1732-3	한국통신사업자연합회	1899-4876	34.938131	127.698811	2016-09-19
진상면사무소	건물 내	전라남도	광양시	관공서	SK	Public WiFi FREE	15-Jan	전라남도 광양시 진상면 신시길 227	전라남도 광양시 진상면 섬거리 292	한국통신사업자연합회	1899-4876	35.019971	127.719671	2016-09-19
진상보건지소	건물 내	전라남도	광양시	서민·복지시설	SK	Public WiFi FREE	15-Jan	전라남도 광양시 진상면 신시길 236	전라남도 광양시 진상면 섬거리 295-1	한국통신사업자연합회	1899-4876	35.019741	127.720041	2016-09-19
진월면사무소	건물 내	전라남도	광양시	관공서	SK	Public WiFi FREE	15-Jan	전라남도 광양시 진월면 선소중앙길 31	전라남도 광양시 진월면 선소리 167	한국통신사업자연합회	1899-4876	34.978381	127.758081	2016-09-19
진월보건지소	건물 내	전라남도	광양시	서민·복지시설	SK	Public WiFi FREE	15-Jan	전라남도 광양시 진월면 선소중앙길 32	전라남도 광양시 진월면 선소리 812-25	한국통신사업자연합회	1899-4876	34.978121	127.757871	2016-09-19
태인동사무소	건물 내	전라남도	광양시	관공서	SK	Public WiFi FREE	15-Jan	전라남도 광양시 담안2길 16-15	전라남도 광양시 태인동 398	한국통신사업자연합회	1899-4876	34.943461	127.749491	2016-09-19
수영구 구민정보화교육장	교육장	부산광역시	수영구	지역문화시설	KT	Public WiFi	15-Sep	부산광역시 수영구 연수로275번길 30	부산광역시 수영구 망미동 826-54	부산광역시	051-888-4601	35.174517	129.101065	2018-01-22
수영구 드림스타트센터	센터	부산광역시	수영구	서민·복지시설	LGU+	Public WiFi	14-Sep	부산광역시 수영구 수미로 53	부산광역시 수영구 망미동 250-17	부산광역시	051-888-4601	35.173467	129.116564	2018-01-22
수영구노인복지관	복지관	부산광역시	수영구	서민·복지시설	LGU+	Public WiFi	12-Oct	부산광역시 수영구 황령대로489번길 83	부산광역시 수영구 남천동 552	부산광역시	051-888-4601	35.140081	129.111188	2018-01-22
원고개시장	대구유통 매장	대구광역시	서구	기타	SKT	public Wifi		대구광역시 서구 북비산로65길6-3	대구광역시 서구 비산동 569-2	대구광역시 서구청	053-663-2473	35.880189	128.569159	2018-02-20
수영구보건소	민원실	부산광역시	수영구	서민·복지시설	LGU+	Public WiFi	14-Sep	부산광역시 수영구 수영로 637-5 (광안동)	부산광역시 수영구 광안동 661-1	부산광역시	051-888-4601	35.162652	129.113443	2018-01-22
서구문화회관	가로등	대구광역시	서구	서민·복지시설	SKT	public Wifi		대구광역시 서구 당산로403	대구광역시 서구 이현동 48-144	대구광역시 서구청	053-663-2473	35.872816	128.545527	2018-02-20
수영구청	민원실	부산광역시	수영구	관공서	KT	Public WiFi	12-Oct	부산광역시 수영구 남천동로 100	부산광역시 수영구 남천동 148-15	부산광역시	051-888-4601	35.145421	129.113026	2018-01-22
수영구청	민원실	부산광역시	수영구	관공서	KT	Public WiFi	15-Sep	부산광역시 수영구 남천동로 100	부산광역시 수영구 남천2동 148-15	부산광역시	051-888-4601	35.145596	129.113186	2018-01-22
수영동 주민센터	민원실	부산광역시	수영구	관공서	LGU+	Public WiFi	14-Sep	부산광역시 수영구 수영성로36(수영동)	부산광역시 수영구 수영동 191-2	부산광역시	051-888-4601	35.170481	129.116051	2018-01-22
종합사회복지관	각층 복도천장	대구광역시	서구	서민·복지시설	SKT	public Wifi		대구광역시 서구 달구벌대로365길3	대구광역시 서구 내당동 67-9	대구광역시 서구청	053-663-2473	35.861011	128.563333	2018-02-20
수영역	역사	부산광역시	수영구	교통시설	LGU+	Public WiFi	13-Oct	부산광역시 수영구 수영로 677	부산광역시 수영구 광안동 1091-1	부산광역시	051-888-4601	35.167758	129.114574	2018-01-22
수영팔도상가시장	시장	부산광역시	수영구	서민·복지시설	LGU+	Public WiFi	14-Sep	부산광역시 수영구 수영로705번길 43 (수영동)	부산광역시 수영구 수영동 60-1	부산광역시	051-888-4601	35.169865	129.116918	2018-01-22
수화통역센터(수영구)	센터	부산광역시	수영구	서민·복지시설	LGU+	Public WiFi	14-Sep	"부산광역시 수영구 수영로 569 (광안동, 4층)"	부산광역시 수영구 광안4동 744-17	부산광역시	051-888-4601	35.156679	129.112696	2018-01-22
이삭의집	이삭의집	부산광역시	수영구	서민·복지시설	KT	Public WiFi	13-Oct	부산광역시 수영구 호암로 35-11	부산광역시 수영구 광안4동 1237-5	부산광역시	051-888-4601	35.156474	129.108655	2018-01-22
한진개발공사	민원실	부산광역시	수영구	관공서	LGU+	Public WiFi	15-Sep	부산광역시 수영구 광남로 31	부산광역시 수영구 남천동 27-7	부산광역시	051-888-4601	35.142757	129.110376	2018-01-22
흰돌실버타운	타운	부산광역시	수영구	서민·복지시설	KT	Public WiFi	16-Oct	부산광역시 수영구 연수로260번길 53	부산광역시 수영구 망미동 774-283	부산광역시	051-888-4601	35.171424	129.098681	2018-01-22
광안리해수욕장-CCTVIP주1	민락동 181-135	부산광역시	수영구	관광	KT	Public WiFi	17-Sep	부산광역시 수영구 민락수변로 9	부산광역시 수영구 민락동 181-135	부산광역시	051-888-4601	35.155034	129.124087	2018-01-22
광안리해수욕장-CCTVIP주2	민락동 181-135	부산광역시	수영구	관광	KT	Public WiFi	17-Sep	부산광역시 수영구 민락수변로 9	부산광역시 수영구 민락동 181-135	부산광역시	051-888-4601	35.155034	129.124087	2018-01-22
광안리해수욕장-광안해변로삼거리1	광안동 204-1	부산광역시	수영구	관광	KT	Public WiFi	17-Sep	부산광역시 수영구 광남로84번길 16	부산광역시 수영구 광안동 204-1	부산광역시	051-888-4601	35.149179	129.114577	2018-01-22
광안리해수욕장-광안해변로삼거리2	광안동 204-1	부산광역시	수영구	관광	KT	Public WiFi	17-Sep	부산광역시 수영구 광남로84번길 16	부산광역시 수영구 광안동 204-1	부산광역시	051-888-4601	35.149179	129.114577	2018-01-22
광안리해수욕장-광안해변로삼거리3	광안동 204-1	부산광역시	수영구	관광	KT	Public WiFi	17-Sep	부산광역시 수영구 광남로84번길 16	부산광역시 수영구 광안동 204-1	부산광역시	051-888-4601	35.149179	129.114577	2018-01-22
광안리해수욕장-목화장옥상	민락동 177-4	부산광역시	수영구	관광	KT	Public WiFi	17-Sep	부산광역시 수영구 광안해변로 259	부산광역시 수영구 민락동 177-4	부산광역시	051-888-4601	35.155539	129.122264	2018-01-22
광안리해수욕장-삼익비치상가1	남천동 148-5	부산광역시	수영구	관광	KT	Public WiFi	17-Sep	부산광역시 수영구 광안해변로 122	부산광역시 수영구 남천동 148-5	부산광역시	051-888-4601	35.145761	129.115088	2018-01-22
광안리해수욕장-삼익비치상가2	남천동 148-5	부산광역시	수영구	관광	KT	Public WiFi	17-Sep	부산광역시 수영구 광안해변로 122	부산광역시 수영구 남천동 148-5	부산광역시	051-888-4601	35.145761	129.115088	2018-01-22
광안리해수욕장-엔젤타운1	광안2동 200-4	부산광역시	수영구	관광	KT	Public WiFi	17-Sep	부산광역시 수영구 광안해변로 179	부산광역시 수영구 광안2동 200-4	부산광역시	051-888-4601	35.150594	129.115885	2018-01-22
광안리해수욕장-엔젤타운2	광안2동 200-4	부산광역시	수영구	관광	KT	Public WiFi	17-Sep	부산광역시 수영구 광안해변로 179	부산광역시 수영구 광안2동 200-4	부산광역시	051-888-4601	35.150594	129.115885	2018-01-22
광안리해수욕장-오페라모텔옆KT IP주	민락동 192-1	부산광역시	수영구	관광	KT	Public WiFi	17-Sep	부산광역시 수영구 광안해변로277번길 23	부산광역시 수영구 민락동 192-1	부산광역시	051-888-4601	35.156927	129.124091	2018-01-22
광안리해수욕장-자유시간1	광안2동 204-3	부산광역시	수영구	관광	KT	Public WiFi	17-Sep	부산광역시 수영구 광안해변로 159	부산광역시 수영구 광안2동 204-3	부산광역시	051-888-4601	35.149007	129.114756	2018-01-22
광안리해수욕장-자유시간2	광안2동 204-3	부산광역시	수영구	관광	KT	Public WiFi	17-Sep	부산광역시 수영구 광안해변로 159	부산광역시 수영구 광안2동 204-3	부산광역시	051-888-4601	35.149007	129.114756	2018-01-22
광안리해수욕장-치어스1	민락동 179-1	부산광역시	수영구	관광	KT	Public WiFi	17-Sep	부산광역시 수영구 광안해변로 239	부산광역시 수영구 민락동 179-1	부산광역시	051-888-4601	35.154775	129.120137	2018-01-22
광안리해수욕장-치어스2	민락동 179-1	부산광역시	수영구	관광	KT	Public WiFi	17-Sep	부산광역시 수영구 광안해변로 239	부산광역시 수영구 민락동 179-1	부산광역시	051-888-4601	35.154775	129.120137	2018-01-22
광안리해수욕장-치어스3	민락동 179-1	부산광역시	수영구	관광	KT	Public WiFi	17-Sep	부산광역시 수영구 광안해변로 239	부산광역시 수영구 민락동 179-1	부산광역시	051-888-4601	35.154775	129.120137	2018-01-22
광안리해수욕장-티파니타워1	광안동 197-18	부산광역시	수영구	관광	KT	Public WiFi	17-Sep	부산광역시 수영구 광안해변로 193	부산광역시 수영구 광안동 197-18	부산광역시	051-888-4601	35.151668	129.116773	2018-01-22
광안리해수욕장-협진앞신호등주1	남천동 5-3	부산광역시	수영구	관광	KT	Public WiFi	17-Sep	부산광역시 수영구 광안해변로 127	부산광역시 수영구 남천동 5-3	부산광역시	051-888-4601	35.146285	129.114401	2018-01-22
광안리해수욕장-협진앞신호등주2	남천동 5-3	부산광역시	수영구	관광	KT	Public WiFi	17-Sep	부산광역시 수영구 광안해변로 127	부산광역시 수영구 남천동 5-3	부산광역시	051-888-4601	35.146285	129.114401	2018-01-22
엔제리너스 부산광안비치	부산 수영구 광안2동 196-1번지 엔제리너스커피부산광안비치점 기가대개체_엔젤 부산광안비치	부산광역시	수영구	관광	LGU+	Public WiFi	17-Sep	부산광역시 수영구 광안해변로 209	부산광역시 수영구 광안2동 196-1번지	부산광역시	051-888-4601	35.152764	129.117613	2018-01-22
엔제리너스 수변공원	부산 수영구 민락동 110-17번지 기가대개체_엔젤 수변공원	부산광역시	수영구	관광	LGU+	Public WiFi	17-Sep	부산광역시 수영구 민락수변로 147	부산광역시 수영구 민락동 110-17번지	부산광역시	051-888-4601	35.156804	129.134501	2018-01-22
파스쿠찌부산 광안리점	부산 수영구 민락동 241번지 기가대개체_파스쿠찌부산 광안리점	부산광역시	수영구	관광	LGU+	Public WiFi	17-Sep	부산광역시 수영구 광안해변로277번길 62-13	부산광역시 수영구 민락동 241번지	부산광역시	051-888-4601	35.158681	129.123595	2018-01-22
할리스부산수영로터리점	부산 수영구 광안3동 50-13번지 기가대개체_할리스부산수영로터리점	부산광역시	수영구	관광	LGU+	Public WiFi	17-Sep	부산광역시 수영구 수영로 710-1	부산광역시 수영구 광안3동 50-13번지	부산광역시	051-888-4601	35.167705	129.117255	2018-01-22
제일종합사회복지관	각층 복도천장	대구광역시	서구	서민·복지시설	SKT	public Wifi		대구광역시 서구 옥산로6길9	대구광역시 서구 원대동3가 1120-1	대구광역시 서구청	053-663-2473	35.885737	128.57885	2018-02-20
가족문화센터	A동 지하 휴게실	울산광역시	남구	지역문화시설	LGU+	Public WiFi FREE	10-Feb	울산광역시 남구 대공원로 84	울산광역시 남구 옥동 336-2	울산시설공단	052-269-6372	35.531671	129.290651	2018-02-19
가족문화센터	A동 지하 (동편)	울산광역시	남구	지역문화시설	LGU+	Public WiFi FREE	10-Feb	울산광역시 남구 대공원로 84	울산광역시 남구 옥동 336-2	울산시설공단	052-269-6372	35.531671	129.290651	2018-02-19
가족문화센터	A동 1F (사무실)	울산광역시	남구	지역문화시설	LGU+	Public WiFi FREE	10-Feb	울산광역시 남구 대공원로 84	울산광역시 남구 옥동 336-2	울산시설공단	052-269-6372	35.531671	129.290651	2018-02-19
가족문화센터	A동 1F (로비)	울산광역시	남구	지역문화시설	LGU+	Public WiFi FREE	10-Feb	울산광역시 남구 대공원로 84	울산광역시 남구 옥동 336-2	울산시설공단	052-269-6372	35.531671	129.290651	2018-02-19
가족문화센터	A동 1F (대강당)	울산광역시	남구	지역문화시설	LGU+	Public WiFi FREE	10-Feb	울산광역시 남구 대공원로 84	울산광역시 남구 옥동 336-2	울산시설공단	052-269-6372	35.531671	129.290651	2018-02-19
가족문화센터	A동 2F (동편복도)	울산광역시	남구	지역문화시설	LGU+	Public WiFi FREE	10-Feb	울산광역시 남구 대공원로 84	울산광역시 남구 옥동 336-2	울산시설공단	052-269-6372	35.531671	129.290651	2018-02-19
가족문화센터	A동 2F (로비)	울산광역시	남구	지역문화시설	LGU+	Public WiFi FREE	10-Feb	울산광역시 남구 대공원로 84	울산광역시 남구 옥동 336-2	울산시설공단	052-269-6372	35.531671	129.290651	2018-02-19
소망모자원	사무실	대구광역시	서구	서민·복지시설	SKT	public Wifi		대구광역시 서구 새방로25길46	대구광역시 서구 상리동 644	대구광역시 서구청	053-663-2473	35.866374	128.5257	2018-02-20
서구문화회관	1층 사무실	대구광역시	서구	서민·복지시설	SKT	public Wifi		대구광역시 서구 당산로403	대구광역시 서구 이현동 48-144	대구광역시 서구청	053-663-2473	35.872816	128.545527	2018-02-20
서구청소년수련관	지하 통신실	대구광역시	서구	서민·복지시설	SKT	public Wifi		대구광역시 서구 문화로122	대구광역시 서구 이현동 48-8	대구광역시 서구청	053-663-2473	35.873609	128.545481	2018-02-20
서구어린이도서관	통신실	대구광역시	서구	서민·복지시설	SKT	public Wifi		대구광역시 서구 문화로123	대구광역시 서구 이현동 69-3	대구광역시 서구청	053-663-2473	35.874301	128.546365	2018-02-20
서부도서관	"휴게실, 디지털자료실"	대구광역시	서구	서민·복지시설	SKT	public Wifi		대구광역시 서구 국채보상로49길12	대구광역시 서구 평리동 1230-1	대구광역시 서구청	053-663-2473	35.872451	128.557728	2018-02-20
서구청민원실	민원실	대구광역시	서구	관공서	SKT	public Wifi		대구광역시 서구 국채보상로257	대구광역시 서구 평리동 1230-9	대구광역시 서구청	053-663-2473	35.871757	128.559175	2018-02-20
서부도서관	야외공원	대구광역시	서구	서민·복지시설	SKT	public Wifi		대구광역시 서구 국채보상로49길12	대구광역시 서구 평리동 1230-1	대구광역시 서구청	053-663-2473	35.872451	128.557728	2018-02-20
신평리시장	시장내	대구광역시	서구	기타	SKT	public Wifi		대구광역시 서구 국채보상로52길33	대구광역시 서구 평리동 1205	대구광역시 서구청	053-663-2473	35.872451	128.557728	2018-02-20
원대신시장	시장내	대구광역시	서구	기타	SKT	public Wifi		대구광역시 서구 달서로54길6	대구광역시 서구 원대동3가 1434-4	대구광역시 서구청	053-663-2473	35.885434	128.574731	2018-02-20
서구시장	시장내	대구광역시	서구	기타	SKT	public Wifi		대구광역시 서구 국채보상로45길33	대구광역시 서구 평리동 1085-1	대구광역시 서구청	053-663-2473	35.873945	128.555707	2018-02-20
청소년수련관	풋살경기장	대구광역시	서구	서민·복지시설	SKT	public Wifi		대구광역시 서구 문화로122	대구광역시 서구 이현동 48-8	대구광역시 서구청	053-663-2473	35.873609	128.545481	2018-02-20
신애보육원	옥상	대구광역시	서구	서민·복지시설	SKT	public Wifi		대구광역시 서구 북비산로33길9-2	대구광역시 서구 평리동 421-1	대구광역시 서구청	053-663-2473	35.880382	128.551475	2018-02-20
울산시 농수산물도매시장	전체	울산광역시	남구	서민·복지시설	KT	public wifi free	18-Jan	울산광역시 남구 삼산로324	울산광역시 남구 삼산동 904-10	울산광역시 남구청	052-226-5381	35.5386218	129.3427374	2018-01-02
울산박물관	전체	울산광역시	남구	지역문화시설	LGU+	public wifi free	18-Nov	울산광역시 남구 두왕로 277	울산광역시 남구 신정동 1888	울산광역시 남구청	052-226-5381	35.5271604	129.3086618	2018-01-02
공업탑 청소년문화의집	전체	울산광역시	남구	지역문화시설	LGU+	public wifi free	18-Nov	울산광역시 남구 봉월로14번길 55	울산광역시 남구 신정동 652-8	울산광역시 남구청	052-226-5381	35.5353507	129.3127159	2018-01-02
야음상가시장	전체	울산광역시	남구	서민·복지시설	LGU+	public wifi free	18-Nov	울산광역시 남구 신선로 183번길 12	울산광역시 남구 야음동 815-16	울산광역시 남구청	052-226-5381	35.5235985	129.3317135	2018-01-02
"내당2,3동"	"민원실,회의실"	대구광역시	서구	관공서	SKT	public Wifi		대구광역시 서구 큰장로15길11-1	대구광역시 서구 내당동100	대구광역시 서구청	053-663-2473	35.867274	128.57456	2018-02-20
비산1동	요가실	대구광역시	서구	관공서	SKT	public Wifi		대구광역시 서구 북비산로65길18	대구광역시 서구 비산동716-8	대구광역시 서구청	053-663-2473	35.881144	128.569002	2018-02-20
비산6동	민원실	대구광역시	서구	관공서	SKT	public Wifi		대구광역시 서구 문화로67길3	대구광역시 서구 비산동491-1	대구광역시 서구청	053-663-2473	35.876291	128.56908	2018-02-20
남구청 민원실	전체	울산광역시	남구	관공서	KT	public wifi free	18-Nov	울산광역시 남구 돋질로 233	울산광역시 남구 달동 1320-1	울산광역시 남구청	052-226-5381	35.5437296	129.3301153	2018-01-02
삼산동사무소	전체	울산광역시	남구	관공서	KT	public wifi free	18-Nov	울산광역시 남구 삼산중로131번길 36	울산광역시 남구 삼산동 1513-13	울산광역시 남구청	052-226-5381	35.5444376	129.3319576	2018-01-02
영유아프라자	전체	울산광역시	남구	서민·복지시설	KT	public wifi free	18-Nov	울산광역시 남구 돋질로 251	울산광역시 남구 달동 1322-9	울산광역시 남구청	052-226-5381	35.5450987	129.3319864	2018-01-02
남구 도시보건지소	전체	울산광역시	남구	관공서	KT	public wifi free	18-Nov	울산광역시 남구 장생포고래로 215	울산광역시 남구 장생포동 41-4	울산광역시 남구청	052-226-5381	35.5029487	129.3776236	2018-01-02
평리1동	통신실	대구광역시	서구	관공서	SKT	public Wifi		대구광역시 서구 문화로280	대구광역시 서구 평리동1044-1	대구광역시 서구청	053-663-2473	35.875596	128.563288	2018-02-20
남구보건소	전체	울산광역시	남구	관공서	KT	public wifi free	18-Nov	울산광역시 남구 삼산중로 132	울산광역시 남구 삼산동 1538-4	울산광역시 남구청	052-226-5381	35.5453601	129.3363124	2018-01-02
삼호작은도서관	전체	울산광역시	남구	지역문화시설	LGU+	namgu wifi	18-Mar	울산광역시 남구 어은로 9-1	울산광역시 남구 무거동 1165-1	울산광역시 남구청	052-226-5381	35.5502365	129.2732276	2018-01-02
옥현어린이도서관	전체	울산광역시	남구	지역문화시설	LGU+	namgu wifi	18-Mar	울산광역시 남구 옥현로58번길 40	울산광역시 남구 무거동 475-1	울산광역시 남구청	052-226-5381	35.5391622	129.264824	2018-01-02
신복도서관	전체	울산광역시	남구	지역문화시설	LGU+	namgu wifi	18-Mar	울산광역시 남구 신복로72번길 18-13	울산광역시 남구 무거동 814-3	울산광역시 남구청	052-226-5381	35.5513724	129.2553236	2018-01-02
월봉도서관	전체	울산광역시	남구	지역문화시설	LGU+	namgu wifi	18-Mar	울산광역시 남구 돋질로139번길 23	울산광역시 남구 신정동 162-3	울산광역시 남구청	052-226-5381	35.5422963	129.3198911	2018-01-02
도산도서관	전체	울산광역시	남구	지역문화시설	LGU+	namgu wifi	18-Mar	울산광역시 남구 번영로54번길 6	울산광역시 남구 야음동 576-10	울산광역시 남구청	052-226-5381	35.5307144	129.3315455	2018-01-02
평리4동	민원실	대구광역시	서구	관공서	SKT	public Wifi		대구광역시 서구 국채보상로46길37-3	대구광역시 서구 평리동1346-3	대구광역시 서구청	053-663-2473	35.867351	128.55681	2018-02-20
대한노인회 울산남구지회	전체	울산광역시	남구	서민·복지시설	KT	public wifi free	18-Jan	울산광역시 남구 중앙로 258번길 51	울산광역시 남구 신정동 302-6	울산광역시 남구청	052-226-5381	35.5455868	129.316276	2018-01-02
남구종합사회복지관	전체	울산광역시	남구	서민·복지시설	KT	public wifi free	18-Jan	울산광역시 남구 번영로 107번길 13	울산광역시 남구 달동 119-1	울산광역시 남구청	052-226-5381	35.5339176	129.3277039	2018-01-02
남구 자원봉사센터	전체	울산광역시	남구	서민·복지시설	KT	public wifi free	18-Jan	울산광역시 남구 중앙로 230번길 17	울산광역시 남구 신정동 179-15	울산광역시 남구청	052-226-5381	35.5421806	129.3053152	2018-01-02
원대동	민원실	대구광역시	서구	관공서	SKT	public Wifi		대구광역시 서구 달서로55길5	대구광역시 서구 원대3가동1315-2	대구광역시 서구청	053-663-2473	35.886807	128.574398	2018-02-20
서부시장	카페 그자리에	대구광역시	서구	기타	SKT	public Wifi		대구광역시 서구 달서로28길9-2	대구광역시 서구 비산동 434-13	대구광역시 서구청	053-663-2473	35.87455	128.57216	2018-02-20
만평시장	참기름집	대구광역시	서구	기타	SKT	public Wifi		대구광역시 서구 달서천로57길45	대구광역시 서구 비산동1247-3	대구광역시 서구청	053-663-2473	35.888253	128.563242	2018-02-20
반고개무침회골목	푸른회식당 옥상	대구광역시	서구	기타	SKT	public Wifi		대구광역시 서구 서대구로8길64	대구광역시 서구 내당동 13-1	대구광역시 서구청	053-663-2473	35.862034	128.563632	2018-02-20
부평종합시장	전체	인천광역시	부평구	기타	SKT		15-Jan	인천광역시 부평구 부흥로316번길 38-3		인천광역시 부평구청	032-509-6174	37.496406	126.726551	2018-02-14
삼산농산물도매시장	전체	인천광역시	부평구	기타	SKT		13-Dec	인천광역시 부평구 영성동로 46		인천광역시 부평구청	032-509-6174	37.522146	126.748779	2018-02-14
부평2동주민센터	민원실	인천광역시	부평구	관공서	SKT		12-Jun	인천광역시 부평구 부평로16번길 5		인천광역시 부평구청	032-509-6174	37.486843	126.717942	2018-02-14
제천지역자활센터	건물내부	충청북도	제천시	서민·복지시설	LGU+	Public WiFi Free	16-Nov	충청북도 제천시 영천동 422	충청북도 제천시 의림대로 43(영천동)	충청북도 제천시	043-641-5783	37.132147	128.207038	2018-02-19
여성문화센터	건물내부	충청북도	제천시	지역문화시설	LGU+	Public WiFi Free	16-Nov	충청북도 제천시 화산동 417	충청북도 제천시 숭의로 48(화산동)	충청북도 제천시	043-641-5783	37.130962	128.21079	2018-02-19
시민회관	건물내부	충청북도	제천시	지역문화시설	LGU+	Public WiFi Free	16-Nov	충청북도 제천시 중앙로2가 26-1	충청북도 제천시 의림대로 125(중앙로2가)	충청북도 제천시	043-641-5783	37.139658	128.21067	2018-02-19
제천노인종합복지관	건물내부	충청북도	제천시	서민·복지시설	LGU+	Public WiFi Free	16-Nov	충청북도 제천시 중앙로2가 26-1	충청북도 제천시 독순로 65(중앙로2가)	충청북도 제천시	043-641-5783	37.139658	128.21067	2018-02-19
평생학습센터	건물내부	충청북도	제천시	지역문화시설	LGU+	Public WiFi Free	16-Nov	충청북도 제천시 영천동 78	충청북도 제천시 동명로4 (영천동)	충청북도 제천시	043-641-5783	37.13201	128.201431	2018-02-19
야외공연장(청전동)	공연장 무대	충청북도	제천시	지역문화시설	LGU+	Public WiFi Free	16-Nov	충청북도 제천시 청전동 655	충청북도 제천시 의림대로33길 32	충청북도 제천시	043-641-5783	37.148617	128.210951	2018-02-19
부평4동주민센터	민원실	인천광역시	부평구	관공서	SKT		12-Jun	인천광역시 부평구 주부토로 65		인천광역시 부평구청	032-509-6174	37.500781	126.724915	2018-02-14
가족문화센터	A동 2F (대강당)	울산광역시	남구	지역문화시설	LGU+	Public WiFi FREE	10-Feb	울산광역시 남구 대공원로 84	울산광역시 남구 옥동 336-2	울산시설공단	052-269-6372	35.531671	129.290651	2018-02-19
가족문화센터	A동 3F (동편복도)	울산광역시	남구	지역문화시설	LGU+	Public WiFi FREE	10-Feb	울산광역시 남구 대공원로 84	울산광역시 남구 옥동 336-2	울산시설공단	052-269-6372	35.531671	129.290651	2018-02-19
가족문화센터	A동 3F (서편복도)	울산광역시	남구	지역문화시설	LGU+	Public WiFi FREE	10-Feb	울산광역시 남구 대공원로 84	울산광역시 남구 옥동 336-2	울산시설공단	052-269-6372	35.531671	129.290651	2018-02-19
가족문화센터	B동 B1F (체육관)	울산광역시	남구	지역문화시설	LGU+	Public WiFi FREE	10-Feb	울산광역시 남구 대공원로 84	울산광역시 남구 옥동 336-2	울산시설공단	052-269-6372	35.531671	129.290236	2018-02-19
가족문화센터	B동 1F (뷔페/식당)	울산광역시	남구	지역문화시설	LGU+	Public WiFi FREE	10-Feb	울산광역시 남구 대공원로 84	울산광역시 남구 옥동 336-2	울산시설공단	052-269-6372	35.531671	129.290236	2018-02-19
가족문화센터	B동 1F (대연회장입구)	울산광역시	남구	지역문화시설	LGU+	Public WiFi FREE	10-Feb	울산광역시 남구 대공원로 84	울산광역시 남구 옥동 336-2	울산시설공단	052-269-6372	35.531671	129.290236	2018-02-19
가족문화센터	B동 2F (로비)	울산광역시	남구	지역문화시설	LGU+	Public WiFi FREE	10-Feb	울산광역시 남구 대공원로 84	울산광역시 남구 옥동 336-2	울산시설공단	052-269-6372	35.531671	129.290236	2018-02-19
가족문화센터	B동 3F (로비)	울산광역시	남구	지역문화시설	LGU+	Public WiFi FREE	10-Feb	울산광역시 남구 대공원로 84	울산광역시 남구 옥동 336-2	울산시설공단	052-269-6372	35.531671	129.290236	2018-02-19
가족문화센터	B동 4F (로비)	울산광역시	남구	지역문화시설	LGU+	Public WiFi FREE	10-Feb	울산광역시 남구 대공원로 84	울산광역시 남구 옥동 336-2	울산시설공단	052-269-6372	35.531671	129.290236	2018-02-19
울산대공원	남문우측화장실옥상	울산광역시	남구	관광	KT	ollehwifi	15-Nov	울산광역시 남구 대공원로 94	울산광역시 남구 옥동 146-1번지	울산시설공단	052-271-8816	35.5279368	129.2840266	2018-02-19
울산대공원	남문좌측편의점옥상	울산광역시	남구	관광	KT	ollehwifi	15-Nov	울산광역시 남구 대공원로 94	울산광역시 남구 옥동 146-1번지	울산시설공단	052-271-8816	35.5279368	129.2840266	2018-02-19
제주우체국	건물내	제주특별자치도	제주시	관공서	KT			제주특별자치도 제주시 관덕로 33		제주특별자치도청		33.51346	126.5226467	2017-04-25
울산대공원	환경에너지관옥상	울산광역시	남구	관광	KT	ollehwifi	15-Nov	울산광역시 남구 대공원로 94	울산광역시 남구 옥동 146-1번지	울산시설공단	052-271-8816	35.5286842	129.2850425	2018-02-19
울산대공원	장미원남자화장실위	울산광역시	남구	관광	KT	ollehwifi	15-Nov	울산광역시 남구 대공원로 94	울산광역시 남구 옥동 146-1번지	울산시설공단	052-271-8816	35.5280114	129.2810934	2018-02-19
울산대공원	장미원여자화장실위	울산광역시	남구	관광	KT	ollehwifi	15-Nov	울산광역시 남구 대공원로 94	울산광역시 남구 옥동 146-1번지	울산시설공단	052-271-8816	35.5280114	129.2810934	2018-02-19
울산대공원	어린이교통안전공원남자화장실옥상	울산광역시	남구	관광	KT	ollehwifi	15-Nov	울산광역시 남구 대공원로 94	울산광역시 남구 옥동 146-1번지	울산시설공단	052-271-8816	35.5292303	129.2862306	2018-02-19
울산대공원	어린이교통안전공원여자화장실옥상	울산광역시	남구	관광	KT	ollehwifi	15-Nov	울산광역시 남구 대공원로 94	울산광역시 남구 옥동 146-1번지	울산시설공단	052-271-8816	35.5292303	129.2862306	2018-02-19
울산대공원	수영장동 2층(헬스장)	울산광역시	남구	관광	KT	ollehwifi	15-Nov	울산광역시 남구 대공원로 94	울산광역시 남구 옥동 146-1번지	울산시설공단	052-271-8816	35.531184	129.293743	2018-02-19
울산대공원	정문편의동(광장)	울산광역시	남구	관광	KT	ollehwifi	15-Nov	울산광역시 남구 대공원로 94	울산광역시 남구 옥동 146-1번지	울산시설공단	052-271-8816	35.531533	129.292905	2018-02-19
울산대공원	장미원매표소(광장)	울산광역시	남구	관광	KT	ollehwifi	15-Nov	울산광역시 남구 대공원로 94	울산광역시 남구 옥동 146-1번지	울산시설공단	052-271-8816	35.527927	129.282438	2018-02-19
산곡1동주민센터	민원실	인천광역시	부평구	관공서	SKT		12-Jun	인천광역시 부평구 마장로319번길 52		인천광역시 부평구청	032-509-6174	37.506865	126.700245	2018-02-14
산곡2동주민센터	민원실	인천광역시	부평구	관공서	SKT		12-Jun	인천광역시 부평구 안남로 255		인천광역시 부평구청	032-509-6174	37.505843	126.708611	2018-02-14
청천1동주민센터	민원실	인천광역시	부평구	관공서	SKT		11-Jan	인천광역시 부평구 산청로87번길 1		인천광역시 부평구청	032-509-6174	37.516729	126.701776	2018-02-14
삼산1동주민센터	민원실	인천광역시	부평구	관공서	SKT		12-Jun	인천광역시 부평구 후정동로 9		인천광역시 부평구청	032-509-6174	37.518393	126.737691	2018-02-14
부개1동주민센터	민원실	인천광역시	부평구	관공서	SKT		12-Jun	인천광역시 부평구 마분로4번길 10		인천광역시 부평구청	032-509-6174	37.484785	126.736969	2018-02-14
부개2동주민센터	민원실	인천광역시	부평구	관공서	SKT		12-Jun	인천광역시 부평구 동수천로 104		인천광역시 부평구청	032-509-6174	37.494758	126.737106	2018-02-14
부개3동주민센터	민원실	인천광역시	부평구	관공서	SKT		12-Jun	인천광역시 부평구 길주남로 117		인천광역시 부평구청	032-509-6174	37.504298	126.734691	2018-02-14
일신동주민센터	민원실	인천광역시	부평구	관공서	SKT		12-Jun	인천광역시 부평구 경인로1148번길 5		인천광역시 부평구청	032-509-6174	37.484454	126.746967	2018-02-14
성동보호작업장	전체	인천광역시	부평구	서민복지시설	SKT		15-Jan	인천광역시 부평구 경인로 880		인천광역시 부평구청	032-509-6174	37.484652	126.718327	2018-02-14
문수야구장	문수야구장 2층 관람석	울산광역시	남구	편의시설	KT	ollehwifi	14-Apr	울산광역시 남구 문수로 45	울산광역시 남구 옥동 산6번지	울산시설공단	052-220-2002	35.5319188	129.2658211	2018-02-19
문수야구장	문수야구장 2층 관람석	울산광역시	남구	편의시설	LGU+	U+zone	14-Apr	울산광역시 남구 문수로 46	울산광역시 남구 옥동 산7번지	울산시설공단	052-220-2002	35.5319188	129.2658211	2018-02-19
어깨동무 지역아동센터	전체	인천광역시	부평구	서민복지시설	SKT		15-Jan	"인천광역시 부평구 세월천로 55, 3층"		인천광역시 부평구청	032-509-6174	37.512916	126.703298	2018-02-14
사상구종합사회복지관	복지관	부산광역시	사상구	서민·복지시설	LGU+	Public WiFi	13-Jan	부산광역시 사상구 백양대로 527	부산광역시 사상구 주례1동 1006-5	부산광역시	051-314-8948	35.1554387	128.9947789	2018-02-19
참사랑 지역아동센터	전체	인천광역시	부평구	서민복지시설	SKT		15-Jan	인천광역시 부평구 길주로354번길 24		인천광역시 부평구청	032-509-6174	37.507407	126.700792	2018-02-14
샘터작은도서관	전체	인천광역시	부평구	교육시설	SKT		15-Oct	인천광역시 부평구 동암산로33번길 6-7		인천광역시 부평구청	032-509-6174	37.473818	126.707888	2018-02-14
어달해변	해안	강원도	동해시	관광	LG U+	Public WiFi Free	17-Jul	강원도 동해시	강원도 동해시 어달동 52-4	강원도 동해시청	033-530-2300	37.568508	129.118489	2018-01-01
제천시노인회관	건물내부	충청북도	제천시	서민·복지시설	LGU+	Public WiFi Free	16-Nov	충청북도 제천시 청전동 653	충청북도 제천시 의림대로 33길 40(청전동)	충청북도 제천시	043-641-5783	37.148458	128.210652	2018-02-19
영원한쉼터	건물내부	충청북도	제천시	서민·복지시설	LGU+	Public WiFi Free	16-Nov	충청북도 제천시 청전동 653	충청북도 제천시 송학면 송학주천로9길 122	충청북도 제천시	043-641-5783	37.148458	128.210652	2018-02-19
의림지관광정보센터	건물내부	충청북도	제천시	관광	LGU+	Public WiFi Free	16-Nov	충청북도 제천시 송학면 포전리 594	충청북도 제천시 의림지로33 (모산동)	충청북도 제천시	043-641-5783	37.19232	128.228117	2018-02-19
제천한방명의촌	건물내부	충청북도	제천시	기타	LGU+	Public WiFi Free	16-Nov	충청북도 제천시 봉양읍 명암리 210	충청북도 제천시 봉양읍 명암로 574	충청북도 제천시	043-641-5783	37.191005	128.144519	2018-02-19
자연치유센터	건물내부	충청북도	제천시	기타	LGU+	Public WiFi Free	16-Nov	충청북도 제천시 청풍면 학현리 287-3	충청북도 제천시 청풍면 학현소야로 324	충청북도 제천시	043-641-5783	37.010214	128.218688	2018-02-19
의병도서관	건물내부	충청북도	제천시	지역문화시설	LGU+	Public WiFi Free	16-Nov	충청북도 제천시 장락동 672-8	충청북도 제천시 내제로 318 (장락동)	충청북도 제천시	043-641-5783	37.145168	128.220628	2018-02-19
큰나무주간보호센터	건물내부	충청북도	제천시	서민·복지시설	LGU+	Public WiFi Free	16-Nov	충청북도 제천시 의림동 26-24	충청북도 제천시 숭문로18길 9(의림동)	충청북도 제천시	043-641-5783	37.142369	128.210016	2018-02-19
제천시종합사회복지관	건물내부	충청북도	제천시	서민·복지시설	LGU+	Public WiFi Free	16-Nov	충청북도 제천시 하소동 345	충청북도 제천시 용두대로23길 14(하소동)	충청북도 제천시	043-641-5783	37.146128	128.197654	2018-02-19
중앙시장	시장 내부	충청북도	제천시	기타	LGU+	Public WiFi Free	16-Oct	충청북도 제천시 풍양로 108 (중앙로1가)	충청북도 제천시 중앙로1가 77	충청북도 제천시	043-641-5783	37.136635	128.211297	2018-02-19
제천시보건소	민원실	충청북도	제천시	관공서	LGU+	Public WiFi Free	16-Oct	충청북도 제천시 의림대로242 (청전동)	충청북도 제천시 청전동 110	충청북도 제천시	043-641-5783	37.148635	128.216432	2018-02-19
덕산보건지소	민원실	충청북도	제천시	관공서	LGU+	Public WiFi Free	16-Oct	충청북도 제천시 덕산면 약초로 80	충청북도 제천시 덕산면 도전리 364-7	충청북도 제천시	043-641-5783	36.910017	128.164967	2018-02-19
